,city_ascii,lat,lng,admin_name,population
0,Tokyo,35.6897,139.6922,Tokyo,37732000.0
24,Osaka,34.6939,135.5022,Osaka,15126000.0
46,Nagoya,35.1833,136.9,Aichi,9197000.0
202,Yokohama,35.4442,139.6381,Kanagawa,3757630.0
366,Fukuoka,33.5833,130.4,Fukuoka,2286000.0
421,Sapporo,43.0667,141.35,Hokkaido,1961690.0
509,Kawasaki,35.5167,139.7,Kanagawa,1539522.0
514,Kobe,34.69,135.1956,Hyogo,1521707.0
538,Kyoto,35.0117,135.7683,Kyoto,1464890.0
578,Saitama,35.8614,139.6456,Saitama,1325843.0
641,Hiroshima,34.3914,132.4519,Hiroshima,1198021.0
721,Sendai,38.2682,140.8694,Miyagi,1061177.0
917,Chiba,35.6073,140.1064,Chiba,981738.0
938,Setagaya,35.6466,139.6532,Tokyo,940509.0
952,Kitakyushu,33.8833,130.8833,Fukuoka,935084.0
1046,Sakai,34.5733,135.4831,Osaka,824408.0
1079,Niigata,37.9161,139.0364,Niigata,790646.0
1082,Hamamatsu,34.7108,137.7275,Shizuoka,788211.0
1114,Nerima,35.7355,139.6517,Tokyo,742463.0
1127,Ota-ku,35.5613,139.716,Tokyo,737187.0
1134,Kumamoto,32.8031,130.7078,Kumamoto,738385.0
1157,Sagamihara,35.5667,139.3667,Kanagawa,722973.0
1161,Okayama,34.65,133.9167,Okayama,720043.0
1173,Edogawa,35.7066,139.8683,Chiba,697932.0
1201,Adachi,35.7749,139.8044,Tokyo,682326.0
1213,Shizuoka,34.9756,138.3828,Shizuoka,685589.0
1268,Honcho,35.6946,139.9826,Chiba,641499.0
1353,Kawaguchi,35.8077,139.7241,Saitama,593353.0
1354,Itabashi,35.7512,139.7093,Tokyo,581337.0
1355,Suginami-ku,35.6995,139.6364,Tokyo,583609.0
1363,Kagoshima,31.6,130.55,Kagoshima,593754.0
1395,Hachioji,35.6664,139.316,Tokyo,575721.0
1467,Koto-ku,35.6728,139.8173,Tokyo,523117.0
1484,Himeji,34.8167,134.6833,Hyogo,527596.0
1508,Utsunomiya,36.5551,139.8826,Tochigi,518197.0
1536,Matsuyama,33.8333,132.7667,Ehime,506743.0
1540,Matsudo,35.7876,139.9032,Chiba,497514.0
1542,Ichikawa,35.7219,139.9311,Chiba,496657.0
1562,Higashi-osaka,34.6794,135.6008,Osaka,490819.0
1589,Nishinomiya-hama,34.7376,135.3416,Hyogo,487010.0
1613,Oita,33.2333,131.6067,Oita,477186.0
1620,Kurashiki,34.5833,133.7667,Okayama,474862.0
1648,Katsushika-ku,35.7434,139.8472,Tokyo,453410.0
1656,Kanazawa,36.5611,136.6564,Ishikawa,462479.0
1667,Fukuyama,34.4833,133.3667,Hiroshima,459576.0
1670,Amagasaki,34.7333,135.4,Hyogo,450506.0
1706,Fujisawa,35.35,139.4667,Kanagawa,436744.0
1711,Machida,35.7106,139.4386,Tokyo,434414.0
1718,Kashiwa,35.8676,139.9758,Chiba,433941.0
1734,Shinagawa-ku,35.6092,139.7302,Tokyo,415729.0
1755,Aomori,40.8223,140.7307,Aomori,425962.0
1763,Toyota,35.0824,137.1563,Aichi,422106.0
1783,Takamatsu,34.35,134.05,Kagawa,417814.0
1799,Toyama,36.6959,137.2137,Toyama,413028.0
1805,Toyonaka,34.7833,135.4667,Osaka,401233.0
1826,Nagasaki,32.7447,129.8736,Nagasaki,404656.0
1834,Hirakata,34.8167,135.65,Osaka,396694.0
1835,Gifu,35.4232,136.7608,Gifu,400118.0
1843,Miyazaki,31.9167,131.4167,Miyazaki,397476.0
1853,Minamisuita,34.7594,135.5169,Osaka,384953.0
1858,Yokosuka,35.25,139.6667,Kanagawa,390275.0
1889,Okazaki,34.9543,137.1744,Aichi,385376.0
1912,Ichinomiya,35.3039,136.8031,Aichi,378681.0
1941,Takasaki,36.3219,139.0033,Gunma,372639.0
1943,Toyohashi,34.7692,137.3915,Aichi,371507.0
1951,Kita-ku,35.7528,139.7336,Tokyo,353058.0
1958,Shinjuku,35.6939,139.7034,Tokyo,349385.0
1961,Nagano,36.6486,138.1947,Nagano,367184.0
1980,Nakano,35.7073,139.6637,Tokyo,341014.0
2014,Kawagoe,35.9251,139.4858,Saitama,354598.0
2032,Wakayama,34.2333,135.1667,Wakayama,353299.0
2037,Nara,34.6844,135.805,Nara,352377.0
2044,Koshigaya,35.8911,139.7909,Saitama,346768.0
2054,Takatsuki,34.85,135.6167,Osaka,347496.0
2077,Tokorozawa,35.7996,139.4686,Saitama,341289.0
2086,Otsu,35.0167,135.85,Shiga,342607.0
2123,Iwaki,37.0505,140.8877,Fukushima,336111.0
2127,Hirosaki,40.6031,140.4638,Aomori,335203.0
2142,Maebashi,36.3895,139.0634,Gunma,331849.0
2148,Asahikawa,43.7706,142.365,Hokkaido,331392.0
2156,Koriyama,37.4004,140.3597,Fukushima,329706.0
2177,Kochi,33.5589,133.5314,Kochi,325560.0
2191,Naha,26.2122,127.6792,Okinawa,316048.0
2241,Toshima,35.7261,139.7167,Tokyo,297954.0
2268,Yokkaichi,34.965,136.6244,Mie,310263.0
2278,Kasugai,35.2475,136.9722,Aichi,306449.0
2295,Meguro,35.6415,139.6983,Tokyo,286905.0
2302,Oakashicho,34.65,135.0,Hyogo,299699.0
2307,Kurume,33.3167,130.5167,Fukuoka,302858.0
2312,Akita,39.72,140.1026,Akita,302984.0
2396,Sumida,35.7107,139.8015,Tokyo,270823.0
2399,Morioka,39.7021,141.1545,Iwate,290553.0
2418,Ibaraki,34.8164,135.5686,Osaka,283835.0
2441,Fukushima,37.7608,140.4747,Fukushima,284282.0
2500,Minato,35.658,139.7515,Tokyo,260486.0
2511,Tsu,34.7184,136.5057,Mie,273267.0
2523,Fuchu,35.6689,139.4776,Tokyo,263093.0
2528,Mito,36.3658,140.4712,Ibaraki,270445.0
2546,Ichihara,35.4981,140.1154,Chiba,268038.0
2566,Yao,34.6269,135.601,Nara,264913.0
2570,Nagaoka,37.4462,138.8512,Niigata,265868.0
2595,Kakogawacho-honmachi,34.75,134.8333,Hyogo,260595.0
2601,Fukui,36.0641,136.2196,Fukui,261474.0
2607,Hiratsuka,35.3167,139.35,Kanagawa,257662.0
2610,Soka,35.8254,139.8053,Saitama,251390.0
2611,Bunkyo-ku,35.708,139.7523,Tokyo,240069.0
2647,Tokushima,34.0703,134.5549,Tokushima,254510.0
2674,Shinozaki,33.95,130.9333,Fukuoka,252844.0
2684,Hakodate,41.7686,140.7289,Hokkaido,251942.0
2692,Chofugaoka,35.6506,139.5407,Tokyo,240359.0
2710,Shibuya-ku,35.6637,139.6977,Tokyo,235193.0
2718,Chigasaki,35.3333,139.4,Kanagawa,242347.0
2728,Yato,35.4833,139.45,Kanagawa,239146.0
2731,Yamagata,38.2554,140.3396,Yamagata,247234.0
2737,Tsukuba-kenkyugakuen-toshi,36.0835,140.0764,Ibaraki,246647.0
2759,Fuji,35.1613,138.6763,Shizuoka,243739.0
2771,Sasebo,33.18,129.715,Nagasaki,242664.0
2801,Arakawa,35.7361,139.7834,Tokyo,217891.0
2806,Matsumoto,36.238,137.972,Nagano,239115.0
2829,Neya,34.7667,135.6333,Osaka,227997.0
2876,Saga,33.2667,130.3,Saga,232359.0
2883,Kasukabe,35.9753,139.7523,Saitama,228975.0
2894,Ageoshimo,35.9774,139.5932,Saitama,226616.0
2915,Taito,35.7126,139.78,Tokyo,210528.0
2946,Takarazuka,34.8114,135.3406,Hyogo,224055.0
2947,Atsugicho,35.4333,139.3667,Kanagawa,223815.0
2967,Ota,36.2911,139.3754,Gunma,222806.0
2975,Hachinohe,40.5123,141.4884,Aomori,222799.0
3009,Nishitokyo,35.7256,139.5383,Tokyo,207436.0
3111,Kure,34.25,132.5667,Hiroshima,212159.0
3132,Isesaki,36.3114,139.1968,Gunma,210332.0
3195,Kodaira,35.7285,139.4774,Tokyo,196959.0
3196,Itami,34.7833,135.4,Hyogo,198522.0
3199,Kamirenjaku,35.6836,139.5595,Tokyo,194460.0
3206,Nagareyama,35.8563,139.9029,Chiba,200298.0
3223,Yachiyo,35.7224,140.0999,Chiba,200538.0
3254,Matsue,35.4708,133.0519,Shimane,201802.0
3320,Higashi-Hiroshima,34.4167,132.7333,Hiroshima,197347.0
3327,Hino,35.6713,139.3951,Tokyo,190598.0
3347,Suzuka,34.882,136.5842,Mie,195250.0
3378,Kumagaya,36.1474,139.3886,Saitama,193190.0
3387,Yamaguchi,34.1833,131.4667,Yamaguchi,193761.0
3426,Anjomachi,34.9587,137.0803,Aichi,188801.0
3432,Odawara,35.25,139.15,Kanagawa,189038.0
3433,Kishiwada,34.4667,135.3667,Osaka,188015.0
3452,Numazu,35.0956,138.8634,Shizuoka,187653.0
3454,Tachikawa,35.6942,139.4197,Tokyo,181115.0
3467,Kofu,35.6621,138.5682,Yamanashi,187144.0
3474,Tottori,35.5,134.2333,Tottori,187323.0
3476,Joetsu,37.1479,138.2361,Niigata,187291.0
3504,Toyokawa,34.8268,137.3759,Aichi,183965.0
3511,Chuo-ku,35.6706,139.772,Tokyo,169995.0
3527,Narashino,35.6804,140.0265,Chiba,174990.0
3543,Uji,34.8844,135.7997,Kyoto,179626.0
3600,Urayasu,35.6539,139.9022,Chiba,169749.0
3629,Kamakurayama,35.3197,139.5525,Kanagawa,172929.0
3700,Hitachi,36.5991,140.6515,Ibaraki,172709.0
3724,Izumo,35.3667,132.7667,Shimane,171995.0
3729,Niiza,35.7935,139.5653,Saitama,164653.0
3746,Sakura,35.7167,140.2167,Chiba,169059.0
3750,Tomakomai,42.6341,141.6055,Hokkaido,170223.0
3761,Nishio,34.8333,137.0667,Aichi,168992.0
3781,Oyama,36.3146,139.8002,Tochigi,167874.0
3815,Iwata,34.7179,137.8515,Shizuoka,165688.0
3816,Takaoka,36.7541,137.0257,Toyama,165880.0
3829,Obihiro,42.9167,143.2,Hokkaido,165684.0
3833,Hadano,35.3667,139.2167,Kanagawa,164292.0
3834,Kushiro,42.9833,144.3833,Hokkaido,165699.0
3876,Ube,33.95,131.25,Yamaguchi,162873.0
3896,Musashino,35.7177,139.5661,Tokyo,148971.0
3956,Miyakonojo,31.7167,131.0667,Miyazaki,159878.0
3972,Higashimurayama,35.7546,139.4685,Tokyo,150458.0
3975,Ogaki,35.3594,136.6129,Gifu,158386.0
3984,Matsuzaka,34.5779,136.5276,Mie,158472.0
3997,Daiwanishi,34.8333,135.4167,Hyogo,155165.0
4039,Kariya,34.9893,137.0021,Aichi,153178.0
4044,Hitachi-Naka,36.3967,140.5347,Ibaraki,154311.0
4087,Tama,35.6369,139.4463,Tokyo,147252.0
4092,Tochigi,36.3813,139.7303,Tochigi,153508.0
4099,Noda,35.95,139.8667,Chiba,152227.0
4115,Ueda,36.4019,138.2491,Nagano,152948.0
4120,Moriguchi,34.7375,135.5642,Osaka,141849.0
4126,Kawashiri,34.8301,135.4173,Osaka,152076.0
4146,Kukichuo,36.0621,139.6668,Saitama,150197.0
4157,Asaka,35.7972,139.5939,Saitama,143915.0
4161,Sayama,35.853,139.4122,Saitama,148474.0
4196,Komaki,35.291,136.9121,Aichi,147897.0
4199,Toda,35.8176,139.6779,Saitama,142352.0
4212,Imabari,34.0667,133.0,Ehime,149209.0
4226,Iruma,35.8358,139.3911,Saitama,145778.0
4245,Yonago,35.4333,133.3333,Tottori,147210.0
4284,Misato,35.8301,139.8723,Chiba,141913.0
4322,Kusatsu,35.0167,135.9667,Shiga,143230.0
4324,Kakamigahara,35.3988,136.8484,Gifu,143641.0
4331,Okinawa,26.3342,127.8056,Okinawa,142094.0
4354,Ashikaga,36.3402,139.4497,Tochigi,142882.0
4386,Fukayacho,36.1975,139.2815,Saitama,141336.0
4405,Fujita,34.8674,138.2577,Shizuoka,140947.0
4424,Kokubunji,35.7109,139.4622,Tokyo,129619.0
4427,Ebina,35.4464,139.3908,Kanagawa,135557.0
4449,Kuwana,35.0667,136.6833,Mie,138798.0
4460,Mino,34.8269,135.4704,Osaka,136976.0
4464,Koga,36.1782,139.7554,Ibaraki,138237.0
4470,Ishizaki,38.4176,141.3027,Miyagi,138856.0
4478,Tsuchiura,36.0667,140.2,Ibaraki,137825.0
4485,Koganei,35.6995,139.503,Tokyo,127226.0
4493,Zama,35.4833,139.4,Kanagawa,130753.0
4495,Shunan,34.05,131.8,Yamaguchi,137899.0
4522,Minoo,34.8333,135.4667,Osaka,134435.0
4524,Kisarazu,35.376,139.9168,Chiba,136118.0
4537,Yaizu,34.8669,138.3247,Shizuoka,136028.0
4543,Inazawa,35.2647,136.7969,Aichi,134938.0
4629,Isahaya,32.85,130.0667,Nagasaki,133512.0
4632,Ome,35.788,139.2758,Tokyo,132436.0
4645,Abiko,35.8667,140.0333,Chiba,130290.0
4686,Narita,35.7767,140.3183,Chiba,130689.0
4710,Onomichi,34.4167,133.2,Hiroshima,130143.0
4776,Iwakuni,34.1664,132.2189,Yamaguchi,128401.0
4779,Seto,35.2236,137.0842,Aichi,127327.0
4801,Kadoma,34.7333,135.5833,Osaka,118319.0
4814,Omiyacho,35.2221,138.6216,Shizuoka,127252.0
4821,Osaki,38.5771,140.9556,Miyagi,127135.0
4845,Iizuka,33.65,130.6833,Fukuoka,126136.0
4881,Honcho,35.758,139.5299,Saitama,116477.0
4887,Daitocho,34.7167,135.6167,Osaka,118812.0
4923,Matsubara,34.5833,135.55,Osaka,117186.0
4931,Kirishima,31.7406,130.7631,Kagoshima,123812.0
4938,Uruma,26.3792,127.8575,Okinawa,122371.0
4960,Ise,34.4833,136.7167,Mie,122432.0
4988,Honmachi,32.5,130.6,Kumamoto,122134.0
5000,Kashiwara,34.5167,135.8,Nara,121604.0
5002,Urasoe,26.2458,127.7219,Okinawa,115855.0
5014,Tsuruoka,38.7272,139.8267,Yamagata,121371.0
5055,Ebetsu,43.1037,141.5362,Hokkaido,119819.0
5056,Fujimino,35.8795,139.5198,Saitama,112745.0
5070,Handa,34.8919,136.9381,Aichi,117544.0
5104,Kasuga,33.5333,130.4667,Fukuoka,111144.0
5121,Ikoma,34.7,135.7,Nara,116518.0
5128,Akishima,35.7057,139.3535,Tokyo,112110.0
5134,Konosu,36.0659,139.5222,Saitama,116777.0
5144,Aizuwakamatsu,37.4948,139.9298,Fukushima,117924.0
5156,Nobeoka,32.5833,131.6667,Miyazaki,117711.0
5176,Fujimi,35.8566,139.5492,Saitama,111858.0
5203,Beppu,33.2795,131.5,Oita,115992.0
5207,Shibuya,35.6536,139.7092,Tokyo,102056.0
5234,Karatsu,33.45,129.9667,Saga,116052.0
5255,Nasushiobara,36.9617,140.0461,Tochigi,115602.0
5256,Tokai,35.0231,136.9022,Aichi,113144.0
5266,Koencho,43.8028,143.8944,Hokkaido,115441.0
5268,Niihama,33.9667,133.2833,Ehime,114971.0
5279,Sano,36.3145,139.5783,Tochigi,114842.0
5288,Hatsukaichi,34.35,132.3333,Hiroshima,114699.0
5303,Kamagaya,35.7768,140.0008,Chiba,109370.0
5317,Kakegawa,34.7687,137.9984,Shizuoka,113954.0
5331,Nagahama,35.3833,136.2833,Shiga,113740.0
5338,Hofu,34.05,131.5667,Yamaguchi,113170.0
5339,Hikone,35.2667,136.2667,Shiga,113191.0
5379,Otaru,43.1907,140.9944,Hokkaido,112452.0
5384,Higashiomi,35.1167,136.2,Shiga,112459.0
5394,Oshu,39.1445,141.1391,Iwate,112402.0
5397,Habikino,34.55,135.6,Osaka,108373.0
5426,Ichinoseki,38.9347,141.1266,Iwate,111824.0
5448,Tondabayashicho,34.5,135.6,Osaka,108735.0
5450,Kazo,36.1314,139.6018,Saitama,110622.0
5453,Omuta,33.0333,130.45,Fukuoka,110054.0
5501,Shirayamamachi,36.5166,136.5656,Ishikawa,110135.0
5508,Marugame,34.2833,133.8,Kagawa,109165.0
5529,Sandacho,34.8833,135.2333,Hyogo,109243.0
5555,Mineshita,35.1185,138.9186,Shizuoka,107416.0
5569,Ikeda,34.8167,135.4333,Hyogo,104148.0
5608,Tajimi,35.3328,137.1316,Gifu,106746.0
5680,Komatsu,36.4083,136.4455,Ishikawa,106023.0
5701,Kiryu,36.4052,139.4973,Gunma,105465.0
5723,Toride,35.9115,140.0504,Ibaraki,103908.0
5724,Onojo,33.5333,130.4833,Fukuoka,101603.0
5771,Inzai,35.8333,140.15,Chiba,103677.0
5781,Chikushino,33.5,130.5167,Fukuoka,103185.0
5785,Ginowan,26.2817,127.7783,Okinawa,99256.0
5803,Saijo,33.9167,133.1833,Ehime,103760.0
5804,Isehara,35.3833,139.3,Kanagawa,102088.0
5842,Sakado,35.9573,139.403,Saitama,100829.0
5930,Kawachinagano,34.4667,135.5667,Osaka,100415.0
5938,Kanoya,31.3831,130.8519,Kagoshima,100880.0
5960,Konan,35.3321,136.8707,Aichi,97435.0
5996,Ashiya,34.7278,135.3033,Hyogo,94116.0
6009,Yashio,35.8225,139.8392,Saitama,93283.0
6017,Inagi,35.6379,139.5046,Tokyo,92604.0
6037,Komae,35.6348,139.5787,Tokyo,83677.0
6052,Yotsukaido,35.6698,140.1679,Chiba,93233.0
6063,Nisshin,35.132,137.0394,Aichi,92823.0
6065,Obu,35.0117,136.9637,Aichi,92562.0
6115,Settsu,34.7772,135.5622,Osaka,86168.0
6118,Wako,35.7812,139.6057,Saitama,84120.0
6133,Ama,35.2004,136.7832,Aichi,87668.0
6137,Kitanagoya,35.2456,136.8659,Aichi,86060.0
6146,Higashiyamato,35.7454,139.4265,Saitama,84260.0
6161,Warabi,35.8256,139.6797,Saitama,74996.0
6164,Takasagocho-takasemachi,34.7667,134.7833,Hyogo,87220.0
6189,Ayase,35.4333,139.4333,Kanagawa,84257.0
6226,Owariasahi,35.2165,137.0354,Aichi,82336.0
6258,Nagaoka,34.9333,135.7,Kyoto,80423.0
6263,Kunitachi,35.6839,139.4414,Tokyo,75133.0
6282,Shinkai,35.8367,139.5803,Saitama,75247.0
6297,Kiyose,35.7857,139.5265,Saitama,75389.0
6324,Kashiba,34.5333,135.7,Nara,78346.0
6359,Izumiotsu,34.5,135.4,Osaka,74175.0
6382,Katano,34.7833,135.6833,Osaka,76002.0
6423,Okegawa,36.0057,139.5427,Saitama,74115.0
6435,Joyo,34.8531,135.78,Kyoto,74356.0
6443,Chiryu,35.0014,137.0506,Aichi,71907.0
6454,Musashimurayama,35.7548,139.3874,Tokyo,71183.0
6473,Kiyosu,35.1998,136.8529,Aichi,69809.0
6476,Dazaifu,33.5167,130.5167,Fukuoka,72430.0
6486,Hekinan,34.8847,136.9934,Aichi,72480.0
6487,Yoshikawa,35.8939,139.8414,Saitama,72139.0
6497,Tsurugashima,35.9345,139.3931,Saitama,70067.0
6518,Yawata-shimizui,34.8667,135.7,Kyoto,70373.0
6531,Chiyoda-ku,35.694,139.7536,Tokyo,67036.0
6540,Toyoake,35.0509,137.0128,Aichi,69389.0
6578,Hatogaya-honcho,35.8267,139.7412,Saitama,61379.0
6600,Fujiidera,34.5667,135.6,Osaka,63338.0
6602,Kashiwara,34.5833,135.6333,Osaka,67757.0
6648,Kitamoto,36.0269,139.5302,Saitama,65191.0
6661,Tomigusuku,26.1611,127.6689,Okinawa,64850.0
6752,Nagakute,35.184,137.0487,Aichi,62473.0
6762,Tagajo,38.2938,141.0043,Miyagi,61937.0
6777,Yamatotakada,34.5167,135.7333,Nara,60791.0
6795,Hasuda,35.9945,139.6624,Saitama,61473.0
6800,Osakasayama,34.5,135.55,Osaka,58593.0
6803,Mukocho,34.95,135.7,Kyoto,56152.0
6807,Tsushima,35.1771,136.7413,Aichi,60908.0
6836,Fussa,35.7333,139.3333,Tokyo,56713.0
6861,Koja,26.3344,127.8057,Okinawa,58658.0
6863,Nonoichi,36.5194,136.6098,Ishikawa,57090.0
6882,Takaishi,34.5167,135.45,Osaka,55910.0
6903,Zushi,35.2833,139.5833,Kanagawa,56996.0
6935,Hamura,35.7672,139.3109,Saitama,53970.0
6979,Shijonawate,34.74,135.6394,Osaka,55094.0
7056,Fuchu,34.3926,132.5045,Hiroshima,51096.0
7090,Shiogama,38.3144,141.022,Miyagi,51999.0
7113,Shiraoka,36.0191,139.6769,Saitama,52103.0
7165,Iwakura,35.2794,136.8714,Aichi,47975.0
7170,Takahama,34.9275,136.9878,Aichi,48685.0
7177,Suzukawa,35.373,139.3839,Kanagawa,48532.0
7210,Kasuya,33.6108,130.4806,Fukuoka,47981.0
7351,Inuma,36.0001,139.6242,Saitama,45065.0
7408,Togo,35.0966,137.0525,Aichi,44065.0
7423,Kumatori,34.4014,135.3558,Osaka,43570.0
7509,Katsuren-haebaru,26.1911,127.7285,Okinawa,40541.0
7526,Oizumi,36.2478,139.4049,Gunma,41681.0
7616,Nakama,33.8208,130.7083,Fukuoka,39634.0
7683,Miyoshidai,35.8284,139.5265,Saitama,38380.0
7726,Kanie,35.1322,136.7868,Aichi,36782.0
7870,Oharu,35.1751,136.8201,Aichi,32590.0
7873,Harima,34.7167,134.8667,Hyogo,33822.0
7879,Aizumi,34.1266,134.4951,Tokushima,35269.0
7886,Fuso,35.3591,136.9132,Aichi,34268.0
7901,Nishihara,26.2228,127.7589,Okinawa,34802.0
7967,Minamishiro,36.0227,139.7227,Saitama,34012.0
7999,Koryo,34.55,135.75,Nara,33617.0
8269,Kaita,34.3722,132.536,Hiroshima,29793.0
8374,Ninomiya,35.2995,139.2555,Kanagawa,27536.0
8389,Mizumaki,33.8548,130.695,Fukuoka,27822.0
8402,Chatan,26.32,127.7639,Okinawa,28167.0
8506,Ginan,35.3896,136.7825,Gifu,25752.0
8661,Oji,34.5947,135.7066,Nara,23731.0
8763,Sanga,34.6002,135.6955,Osaka,23264.0
8832,Kitajima,34.1256,134.547,Tokushima,22670.0
8903,Kasamatsucho,35.3672,136.7632,Gifu,22415.0
8904,Kanmaki,34.5627,135.7167,Nara,21145.0
9012,Yonabaru,26.1995,127.7548,Okinawa,19735.0
9044,Showa,35.6279,138.5351,Yamanashi,20857.0
9189,Kitagata,35.4358,136.6844,Gifu,18308.0
9247,Utazu,34.3106,133.8256,Kagawa,18897.0
9291,Tadaoka-higashi,34.4871,135.4014,Osaka,16628.0
9518,Kawai,34.5783,135.7367,Nara,16983.0
9572,Oyamazaki,34.9028,135.6885,Kyoto,15991.0
9620,Toyoyama,35.2505,136.9121,Aichi,15729.0
11848,Izumisano,34.4,135.3333,Osaka,99328.0
11853,Kani,35.4261,137.0613,Gifu,99545.0
11858,Chikusei,36.3071,139.9831,Ibaraki,99758.0
11878,Tsuyama,35.0692,134.0044,Okayama,99410.0
11885,Sakata,38.9145,139.8364,Yamagata,99235.0
11901,Itoshima,33.5539,130.1978,Fukuoka,98527.0
11913,Saku,36.2488,138.4769,Nagano,98292.0
11928,Chitose,42.821,141.6509,Hokkaido,97945.0
11940,Munakata,33.8,130.5333,Fukuoka,97041.0
11983,Iida,35.515,137.8214,Nagano,96642.0
11998,Omura,32.9,129.9583,Nagasaki,95619.0
12009,Kamisu,35.8899,140.6645,Ibaraki,95471.0
12032,Shimada,34.8363,138.1927,Shizuoka,95198.0
12069,Kanuma,36.5671,139.7451,Tochigi,94591.0
12080,Shibata,37.9479,139.3273,Niigata,94258.0
12091,Azumino,36.3039,137.9058,Nagano,93927.0
12101,Sanjo,37.6368,138.9617,Niigata,93671.0
12102,Higashi-Matsuyama,36.0422,139.3999,Saitama,92440.0
12138,Hanamaki Onsen,39.3886,141.1169,Iwate,92815.0
12158,Kitakami,39.2867,141.1132,Iwate,92348.0
12172,Satsumasendai,31.8167,130.3,Kagoshima,91875.0
12209,Imizucho,36.7306,137.0756,Toyama,90201.0
12241,Mihara,34.4,133.0833,Hiroshima,89972.0
12311,Koka,34.9667,136.1667,Shiga,88538.0
12335,Sakai,36.1669,136.2314,Fukui,87945.0
12377,Fukuroi,34.7502,137.9247,Shizuoka,86851.0
12391,Mobara,35.4285,140.2881,Chiba,86446.0
12427,Gotenba,35.3087,138.9346,Shizuoka,86334.0
12437,Kameoka,35.0167,135.5667,Kyoto,86112.0
12449,Kaizuka,34.4333,135.3667,Osaka,84356.0
12461,Iga,34.7667,136.1333,Mie,85883.0
12466,Kitakoriyamacho,34.65,135.7833,Nara,84007.0
12467,Ushiku,35.9794,140.1496,Ibaraki,84505.0
12475,Sekimachi,35.4958,136.918,Gifu,85636.0
12485,Chita,35.0,136.8667,Aichi,83881.0
12502,Takayama,36.146,137.2522,Gifu,85199.0
12511,Moriyama,35.0586,135.9942,Shiga,83567.0
12531,Yokotemachi,39.3113,140.5533,Akita,84556.0
12602,Nakatsu,33.5992,131.1906,Fukuoka,82714.0
12622,Omihachiman,35.1283,136.0981,Shiga,81545.0
12623,Muroran,42.3152,140.974,Hokkaido,81580.0
12627,Shikokuchuo,33.9833,133.55,Ehime,82320.0
12672,Kimitsu,35.3304,139.9027,Chiba,81355.0
12690,Kashiwazaki,37.3719,138.559,Niigata,81027.0
12704,Yonezawa,37.9222,140.1168,Yamagata,80795.0
12714,Gamagori,34.8431,137.2196,Aichi,79292.0
12715,Akiruno,35.7289,139.2941,Tokyo,79600.0
12718,Echizen,35.9035,136.1687,Fukui,80264.0
12751,Natori-shi,38.1715,140.8918,Miyagi,79250.0
12777,Gyoda,36.1389,139.4556,Saitama,78488.0
12779,Hanno,35.8557,139.3277,Saitama,79169.0
12788,Iwamizawa,43.1962,141.7759,Hokkaido,79361.0
12807,Mooka,36.4404,140.0134,Tochigi,78665.0
12822,Maizuru,35.4667,135.3833,Kyoto,78730.0
12823,Kizugawa,34.7333,135.8167,Kyoto,78035.0
12891,Honjo,36.2436,139.1904,Saitama,76757.0
12910,Fukuchiyama,35.3,135.1333,Kyoto,77150.0
12913,Tsubame,37.6731,138.8822,Niigata,76590.0
12922,Toyooka,35.55,134.8167,Hyogo,77005.0
12923,Nikko,36.7198,139.6982,Tochigi,77027.0
12927,Ryugasaki,35.9116,140.1823,Ibaraki,76055.0
12933,Aira,31.7283,130.6278,Kagoshima,76610.0
12961,Nabari,34.6276,136.1084,Mie,75942.0
12972,Kai,35.6608,138.5158,Yamanashi,75337.0
12974,Toyomamachi-teraike,38.6918,141.1877,Miyagi,76164.0
12977,Daisen,39.4531,140.4754,Akita,76164.0
13021,Tosu,33.3833,130.5,Saga,74673.0
13022,Kyotanabe,34.8167,135.7667,Kyoto,73985.0
13028,Nakatsugawa,35.4876,137.5006,Gifu,75500.0
13041,Sasagawa,37.2865,140.3727,Fukushima,75128.0
13056,Tatebayashi,36.2448,139.5421,Gunma,73991.0
13069,Amakusa,32.4667,130.2,Kumamoto,74861.0
13078,Kandori,35.6833,140.0333,Chiba,74469.0
13086,Miki,34.7936,134.9931,Hyogo,74255.0
13112,Tatsunocho-tominaga,34.8508,134.5453,Hyogo,73952.0
13145,Yurihonjo,39.3859,140.0488,Akita,73840.0
13146,Inuyama,35.3786,136.9445,Gifu,72926.0
13151,Kasama,36.3452,140.3043,Ibaraki,73521.0
13190,Shibukawa,36.3894,139.0633,Gunma,73064.0
13208,Otawara,36.8711,140.0156,Tochigi,72923.0
13272,Ishioka,36.1908,140.2872,Ibaraki,71851.0
13293,Yukuhashi,33.7333,130.9833,Fukuoka,70922.0
13311,Katori,35.8977,140.4992,Chiba,71391.0
13362,Moriya,35.9514,139.9754,Ibaraki,68992.0
13363,Ritto,35.0167,136.0,Shiga,69598.0
13399,Eniwa,42.8826,141.5778,Hokkaido,70102.0
13434,Minami-Alps,35.6083,138.465,Yamanashi,69642.0
13445,Uwajima,33.2167,132.5667,Ehime,69639.0
13471,Anan,33.9167,134.6667,Tokushima,69259.0
13473,Sabae,35.9565,136.1843,Fukui,68666.0
13502,Tanabe,33.7333,135.3833,Wakayama,68986.0
13524,Soja,34.6728,133.7464,Okayama,68551.0
13539,Odate,40.2714,140.5642,Akita,68593.0
13604,Fuefuki,35.6473,138.6397,Yamanashi,67396.0
13614,Kashima,35.9656,140.6448,Ibaraki,67001.0
13620,Hashima,35.3199,136.7033,Gifu,66312.0
13637,Yachimata,35.6667,140.3167,Chiba,66430.0
13667,Fukutsu,33.7667,130.4833,Fukuoka,65770.0
13702,Saiki,32.9667,131.9,Oita,66497.0
13723,Shiojiri,36.115,137.9534,Nagano,66181.0
13777,Ina,35.8275,137.954,Nagano,65670.0
13849,Ito,34.9657,139.1019,Shizuoka,64473.0
13853,Yanagawa,33.1597,130.4081,Fukuoka,64120.0
13854,Miyoshi,35.0894,137.0748,Aichi,62963.0
13872,Sodegaura,35.43,139.9544,Chiba,63975.0
13876,Tamana,32.9281,130.5594,Kumamoto,64206.0
13892,Tenri,34.5967,135.8372,Nara,63760.0
13928,Asahi,35.7167,140.65,Chiba,63507.0
13931,Tsuruga,35.6452,136.0555,Fukui,63724.0
13950,Kurihara,38.7301,141.0215,Miyagi,63689.0
13977,Shiroi,35.7915,140.0563,Chiba,61673.0
13980,Nago,26.5917,127.9775,Okinawa,63060.0
13994,Kaga,36.3028,136.315,Ishikawa,62997.0
14000,Koshizuka,32.886,130.7897,Kumamoto,61997.0
14021,Fujioka,36.2587,139.0746,Gunma,62608.0
14064,Tendo,38.3623,140.3779,Yamagata,61981.0
14091,Itoman,26.1236,127.6658,Okinawa,60903.0
14093,Ogoshi,32.8833,130.7833,Kumamoto,61022.0
14099,Mitoyo,34.1825,133.715,Kagawa,61838.0
14133,Hita,33.3167,130.9333,Oita,61755.0
14134,Aisai,35.1528,136.7282,Aichi,60914.0
14213,Tamba,35.1833,135.0333,Hyogo,60824.0
14220,Sennan,34.3628,135.2761,Osaka,59634.0
14229,Koga,33.7333,130.4667,Fukuoka,59349.0
14254,Hashimoto,34.3167,135.6,Wakayama,60058.0
14281,Yame,33.1994,130.5589,Fukuoka,60196.0
14296,Shimotsuke,36.3872,139.8421,Tochigi,59404.0
14304,Towada,40.6127,141.2059,Aomori,60063.0
14312,Sanyo-Onoda,34.0,131.1833,Yamaguchi,59648.0
14348,Joso,36.0236,139.9938,Ibaraki,59223.0
14355,Ogori,33.4,130.55,Fukuoka,58322.0
14367,Kesennuma,38.9081,141.5699,Miyagi,59341.0
14375,Hyuga,32.4167,131.6167,Miyazaki,59276.0
14387,Tahara,34.6688,137.2809,Aichi,59015.0
14391,Chikuma,36.5339,138.12,Nagano,58755.0
14393,Shirakawa,37.1263,140.2109,Fukushima,59044.0
14396,Chichibu,35.9918,139.0855,Saitama,59101.0
14461,Kitahiroshima,42.9855,141.5631,Hokkaido,58125.0
14469,Tokoname,34.8865,136.8323,Aichi,57507.0
14478,Date,37.8191,140.563,Fukushima,58232.0
14483,Kokawa,34.2664,135.3653,Wakayama,58130.0
14487,Ishikari,43.1667,141.3167,Hokkaido,58284.0
14491,Kosai,34.7184,137.5316,Shizuoka,57682.0
14504,Choshi,35.7346,140.8268,Chiba,57533.0
14506,Togane,35.5599,140.3661,Chiba,57560.0
14526,Mizuho,35.3918,136.6909,Gifu,56106.0
14558,Minokamo,35.4402,137.0157,Gifu,57007.0
14597,Uki,32.645,130.6864,Kumamoto,57096.0
14616,Kudamatsu,34.0167,131.8667,Yamaguchi,56661.0
14634,Kan'onjicho,34.1272,133.6614,Kagawa,56639.0
14653,Tama,34.4886,133.9486,Okayama,56431.0
14676,Murakami,38.224,139.48,Niigata,56713.0
14695,Nogata,33.7417,130.7322,Fukuoka,55705.0
14731,Takizawa,39.7347,141.0771,Iwate,56050.0
14773,Hidaka,35.9078,139.3391,Saitama,54728.0
14774,Toki,35.4192,137.1832,Gifu,55388.0
14802,Narutocho-mitsuishi,34.1667,134.6167,Tokushima,55264.0
14861,Chino,35.9955,138.1588,Nagano,55018.0
14868,Konan,35.0,136.0833,Shiga,54392.0
14871,Funato,34.25,135.3167,Wakayama,53714.0
14896,Minamiuonuma,37.0655,138.8761,Niigata,54820.0
14898,Sakurai,34.5167,135.85,Nara,54346.0
14908,Annaka,36.3263,138.8871,Gunma,54607.0
14936,Nihonmatsu,37.5849,140.4312,Fukushima,54447.0
14959,Sado,38.0183,138.3683,Niigata,54304.0
14965,Hanyu,36.1726,139.5485,Saitama,53431.0
15038,Hamada,34.9,132.0833,Shimane,53753.0
15069,Naka,36.4574,140.4868,Ibaraki,53035.0
15086,Mutsu,41.2928,141.1836,Aomori,53393.0
15148,Tomiya,38.4,140.8833,Miyagi,51859.0
15149,Imaricho-ko,33.2667,129.8833,Saga,52694.0
15152,Usa,33.532,131.3495,Oita,52767.0
15173,Minami-Soma,37.6422,140.9573,Fukushima,52619.0
15189,Miyakojima,24.8056,125.2811,Okinawa,52390.0
15259,Izumi,32.0833,130.35,Kagoshima,51893.0
15282,Bando,36.0484,139.8887,Ibaraki,51511.0
15296,Tsukubamirai,35.9631,140.037,Ibaraki,51134.0
15346,Arao,32.9833,130.4353,Kumamoto,50570.0
15348,Satte,36.0781,139.7259,Saitama,49961.0
15377,Hannan,34.3597,135.2394,Osaka,49794.0
15379,Nanao,37.0431,136.9674,Ishikawa,51001.0
15385,Sakaidecho,34.3167,133.8667,Kagawa,50577.0
15404,Yuki,36.3055,139.8766,Ibaraki,50218.0
15410,Kyotango,35.6242,135.0611,Kyoto,50857.0
15417,Miyako,39.6414,141.9571,Iwate,50855.0
15420,Goshogawara,40.808,140.4401,Aomori,50757.0
15422,Susono,35.1739,138.9068,Shizuoka,50510.0
15427,Nakagawa,33.5,130.4167,Fukuoka,50186.0
15430,Higashiura,34.9771,136.9656,Aichi,49252.0
15451,Yasu,35.0667,136.0333,Shiga,50049.0
15462,Nichinan,31.6022,131.38,Miyazaki,50518.0
15507,Kameyama,34.8558,136.4517,Mie,49971.0
15532,Miyoshi,34.8,132.85,Hiroshima,50046.0
15561,Chikugo,33.2092,130.5044,Fukuoka,48794.0
15588,Noshiromachi,40.2121,140.0266,Akita,49625.0
15592,Tomisato,35.7,140.5667,Chiba,49470.0
15593,Suzaka,36.6511,138.3073,Nagano,49393.0
15610,Tokamachi,37.1333,138.75,Niigata,49472.0
15615,Hikari,33.9619,131.9422,Yamaguchi,49013.0
15627,Asakura,33.4167,130.6667,Fukuoka,49254.0
15631,Nomimachi,36.447,136.5541,Ishikawa,48860.0
15636,Midori,36.3948,139.2811,Gunma,49190.0
15707,Yamaga,33.0169,130.6828,Kumamoto,48753.0
15710,Omitama,36.2393,140.3526,Ibaraki,48555.0
15725,Suwa,36.0391,138.114,Nagano,48309.0
15726,Ami,36.0308,140.2148,Ibaraki,48072.0
15760,Oamishirasato,35.5167,140.3167,Chiba,47722.0
15763,Sanmu,35.6,140.4167,Chiba,48196.0
15779,Ishigaki,24.3406,124.1556,Okinawa,48258.0
15823,Shimotsucho-kominami,34.15,135.2167,Wakayama,47697.0
15831,Ena,35.4492,137.4128,Gifu,47999.0
15839,Okaya,36.0671,138.0493,Nagano,47499.0
15842,Tonami,36.6475,136.9622,Toyama,47638.0
15849,Higashine,38.4313,140.3911,Yamagata,47747.0
15856,Takeocho-takeo,33.1947,130.0215,Saga,47681.0
15876,Ono,34.8497,134.9342,Hyogo,47316.0
15887,Hitachi-ota,36.5383,140.5309,Ibaraki,47586.0
15890,Kikugawa,34.75,138.0833,Shizuoka,47194.0
15925,Nanto,36.5878,136.9194,Toyama,47390.0
15938,Gosen,37.7444,139.1826,Niigata,47262.0
15953,Tomioka,36.2599,138.8899,Gunma,46928.0
15991,Noboribetsu,42.4128,141.1066,Hokkaido,46838.0
15997,Fujiyoshida,35.4875,138.8077,Yamanashi,46659.0
16001,Sanuki,34.32,134.1794,Kagawa,46723.0
16032,Hioki,31.6117,130.3731,Kagoshima,46671.0
16034,Shimeo,33.5914,130.4798,Fukuoka,46207.0
16041,Tamagawa,33.6389,130.8061,Fukuoka,45946.0
16055,Izunokuni,35.0333,138.9333,Shizuoka,46212.0
16064,Nakai,33.5833,133.6333,Kochi,46567.0
16094,Kurayoshi,35.4333,133.8167,Tottori,46269.0
16099,Kasaoka,34.5039,133.51,Okayama,46080.0
16123,Takashima,35.35,136.0333,Shiga,46246.0
16151,Kikuchi,32.9833,130.8167,Kumamoto,45971.0
16153,Hokota,36.1587,140.5164,Ibaraki,45910.0
16158,Shima,34.3333,136.8333,Mie,45834.0
16200,Kariya,34.7517,134.3931,Hyogo,45473.0
16205,Hokuto,41.8241,140.653,Hokkaido,45661.0
16214,Kitakata,37.6511,139.8748,Fukushima,45590.0
16293,Numata,36.646,139.0442,Gunma,45132.0
16299,Sugito,36.0258,139.7367,Saitama,43755.0
16301,Nanjo,26.1631,127.7706,Okinawa,44318.0
16322,Sakura,36.6853,139.9664,Tochigi,44777.0
16329,Tateyama,34.9966,139.87,Chiba,44692.0
16332,Iwanuma,38.1043,140.8702,Miyagi,44340.0
16381,Nagaizumi,35.1377,138.8972,Shizuoka,43204.0
16400,Taketoyo,34.8511,136.9147,Aichi,43095.0
16416,Kikuyo,32.8625,130.8287,Kumamoto,43443.0
16429,Masuda,34.6667,131.85,Shimane,44474.0
16478,Ogimachi,33.25,130.2,Saga,43787.0
16489,Hagi,34.4,131.4,Yamaguchi,44118.0
16496,Otofuke,42.9942,143.1981,Hokkaido,44049.0
16503,Goshikicho-aihara-minamidani,34.3,134.7833,Hyogo,43914.0
16537,Himi,36.8567,136.9731,Toyama,43747.0
16540,Yatomi,35.1167,136.7167,Aichi,43038.0
16580,Taniyama-chuo,31.5211,130.5176,Kagoshima,42683.0
16582,Shinshiro,34.9159,137.4986,Aichi,43620.0
16611,Hokuto,35.7765,138.4236,Yamanashi,43452.0
16622,Makinohara,34.7333,138.2167,Shizuoka,43061.0
16639,Shimabara,32.7878,130.3697,Nagasaki,42858.0
16660,Kota,34.8645,137.1658,Aichi,42523.0
16680,Kobayashi,31.9944,130.9517,Miyazaki,43114.0
16692,Miura,35.15,139.6167,Kanagawa,41807.0
16733,Awaji,34.4333,134.9167,Hyogo,42597.0
16743,Obita,32.8252,129.8751,Nagasaki,41341.0
16788,Kasai,34.9333,134.8333,Hyogo,42290.0
16792,Akaiwa,34.7553,134.0189,Okayama,42341.0
16804,Futtsu,35.3041,139.857,Chiba,42280.0
16843,Nakano,36.742,138.3694,Nagano,41972.0
16851,Maniwa,35.0758,133.7525,Okayama,42259.0
16879,Minamishimabara,32.6667,130.3,Nagasaki,41903.0
16916,Shimotsuma,36.1844,139.9675,Ibaraki,41499.0
16969,Nanbei,35.3167,139.1,Kanagawa,41259.0
17008,Yuzawa,39.1641,140.4948,Akita,41601.0
17019,Masaki,33.7833,132.7167,Ehime,39681.0
17029,Kitaibaraki,36.8019,140.751,Ibaraki,41352.0
17051,Komoro,36.3275,138.4258,Nagano,41066.0
17089,Sumoto,34.35,134.9,Hyogo,41056.0
17096,Unzen,32.8353,130.1875,Nagasaki,41018.0
17102,Amami,28.3783,129.4944,Okinawa,41049.0
17137,Uozu,36.8273,137.4092,Toyama,40828.0
17149,Kato,34.9167,134.9667,Hyogo,40728.0
17172,Yomitan,26.3961,127.7444,Okinawa,39791.0
17221,Komono,35.02,136.5075,Mie,40329.0
17246,Agano,37.8344,139.226,Niigata,40382.0
17282,Aizawa,35.5288,139.3216,Kanagawa,39260.0
17290,Ozu,33.5,132.55,Ehime,40289.0
17324,Itoigawa,37.039,137.8627,Niigata,40200.0
17326,Kasumigaura,36.1517,140.2371,Ibaraki,39993.0
17354,Sagae,38.3809,140.276,Yamagata,39854.0
17439,Kurobeshin,36.8667,137.45,Toyama,39718.0
17448,Mibu,36.4422,139.8147,Tochigi,39151.0
17496,Takikawa,43.5578,141.9104,Hokkaido,39266.0
17511,Mitsuke,37.5316,138.9127,Niigata,39024.0
17550,Shibata,38.0566,140.7658,Miyagi,38638.0
17551,Tamba-Sasayama,35.0725,135.2219,Hyogo,39245.0
17569,Higashimatsushima,38.4263,141.2104,Miyagi,38880.0
17624,Inashiki,35.9565,140.3239,Ibaraki,38853.0
17633,Yoshinogawa,34.0631,134.3614,Tokushima,38726.0
17641,Umi,33.5675,130.5111,Fukuoka,37713.0
17643,Hitachiomiya,36.5425,140.4109,Ibaraki,38836.0
17653,Omagari,39.4531,140.4754,Akita,38794.0
17654,Sakuragawa,36.3273,140.0906,Ibaraki,38677.0
17665,Ibusuki,31.2528,130.6331,Kagoshima,38571.0
17676,Gujo,35.7486,136.9643,Gifu,38747.0
17681,Nishiwaki,34.9903,134.9722,Hyogo,38479.0
17699,Tokai,36.473,140.5661,Ibaraki,37700.0
17704,Misawa,40.6831,141.3691,Aomori,38351.0
17772,Ibara,34.6,133.4667,Okayama,38236.0
17785,Katsuragi,34.4833,135.7333,Nara,37225.0
17983,Maibara,35.3167,136.2833,Shiga,37374.0
18002,Tamamura,36.3044,139.1149,Gunma,36041.0
18020,Seika,34.7667,135.7833,Kyoto,35951.0
18070,Kannan,35.0889,138.9534,Shizuoka,36607.0
18096,Tsubata,36.6692,136.7288,Ishikawa,36728.0
18126,Fuchucho,34.565,133.2419,Hiroshima,36754.0
18129,Soma,37.7967,140.9196,Fukushima,36752.0
18132,Mizunami,35.3618,137.2545,Gifu,36721.0
18135,Komatsushimacho,34.0003,134.5844,Tokushima,36123.0
18151,Kanada,33.776,130.9805,Fukuoka,36075.0
18160,Yasugicho,35.4283,133.2536,Shimane,36713.0
18262,Uto,32.6828,130.6669,Kumamoto,35947.0
18271,Morohongo,35.9415,139.316,Saitama,35370.0
18297,Rifu,38.3303,140.9759,Miyagi,35521.0
18383,Miyajima,33.15,130.4667,Kumamoto,35665.0
18405,Setouchi,34.6667,134.1,Okayama,35624.0
18425,Atami,35.096,139.0716,Shizuoka,35276.0
18435,Usuki,33.1333,131.8,Oita,35681.0
18440,Isumi,35.2539,140.3852,Chiba,35570.0
18496,Minami-Boso,35.0432,139.84,Chiba,35454.0
18514,Ofunato,39.068,141.7252,Iwate,35452.0
18545,Kahoku,36.7198,136.7067,Ishikawa,34936.0
18551,Kamata,33.5632,130.7118,Fukuoka,35208.0
18563,Unnan,35.2833,132.9,Shimane,35366.0
18591,Ozu,32.879,130.8683,Kumamoto,34975.0
18668,Tamura,37.4333,140.5667,Fukushima,35042.0
18671,Iyo,33.75,132.7,Ehime,34927.0
18714,Seiyo,33.3628,132.5108,Ehime,34898.0
18768,Sosa,35.7075,140.5642,Chiba,34427.0
18770,Shingu,33.7153,130.4465,Fukuoka,33017.0
18772,Awa,34.1014,134.2964,Tokushima,34569.0
18783,Abashiri,44.0167,144.2667,Hokkaido,34640.0
18794,Ofunato,39.0819,141.7086,Iwate,34568.0
18835,Goto,32.7,128.8333,Nagasaki,34425.0
18841,Inabe,35.1156,136.5614,Mie,34323.0
18853,Shinjo,38.7667,140.3,Yamagata,34284.0
18879,Toon,33.7833,132.8667,Ehime,34195.0
18946,Shiso,35.0,134.55,Hyogo,34116.0
18959,Uonuma,37.2301,138.9615,Niigata,34112.0
19005,Mizuho,35.772,139.354,Saitama,32108.0
19019,Ojiya,37.3144,138.7951,Niigata,33729.0
19105,Ono,35.9797,136.4875,Fukui,33640.0
19118,Sakaiminato,35.5333,133.2333,Shimane,32503.0
19134,Osawa,33.2,130.3833,Fukuoka,32609.0
19148,Taishi,34.8333,134.5724,Hyogo,33321.0
19167,Date,42.4719,140.8647,Hokkaido,33404.0
19178,Shobara,34.8544,133.0192,Hiroshima,33409.0
19190,Hayama,35.2725,139.5861,Kanagawa,31546.0
19222,Watari,38.0442,140.8676,Miyagi,32846.0
19252,Minamikyushu,31.3778,130.4419,Kagoshima,33115.0
19262,Asakuchi,34.5247,133.5875,Okayama,32669.0
19266,Shimotoba,34.8838,135.663,Kyoto,31292.0
19270,Kamaishi,39.2758,141.8857,Iwate,33061.0
19279,Bungoono,32.9833,131.5833,Oita,33066.0
19284,Mashiki,32.8006,130.817,Kumamoto,32587.0
19287,Wakabadai,45.4156,141.6731,Hokkaido,33036.0
19299,Yamanashi,35.6934,138.6869,Yamanashi,32925.0
19340,So,31.6536,131.0194,Kagoshima,32849.0
19341,Oiso,35.3069,139.3113,Kanagawa,31121.0
19360,Kuji,40.1905,141.7757,Iwate,32813.0
19377,Yufu,33.1833,131.4333,Oita,32698.0
19381,Kaizu,35.2206,136.6365,Gifu,32493.0
19389,Motosu,35.483,136.6786,Gifu,32664.0
19409,Shiroishi,38.0025,140.6197,Miyagi,32570.0
19413,Yorii,36.1183,139.193,Saitama,32172.0
19434,Minamisatsuma,31.4169,130.3228,Kagoshima,32503.0
19438,Shimanto,33.0,132.9333,Kochi,32551.0
19492,Tawaramoto,34.5566,135.795,Nara,30950.0
19495,Zentsujicho,34.2167,133.7833,Kagawa,31620.0
19516,Konan,33.5667,133.7,Kochi,32123.0
19541,Namerikawa,36.7644,137.3412,Toyama,32317.0
19554,Shimizucho,35.099,138.9029,Shizuoka,31652.0
19557,Nagato,34.3722,131.1833,Yamaguchi,32183.0
19578,Bizen,34.7453,134.1889,Okayama,32077.0
19591,Odacho-oda,35.1833,132.5,Shimane,32102.0
19592,Shima,39.5544,141.1555,Iwate,32036.0
19603,Yaese,26.1582,127.7186,Okinawa,30974.0
19638,Chuo,35.5996,138.6339,Yamanashi,31053.0
19659,Namegata,35.9905,140.489,Ibaraki,31828.0
19667,Komagane,35.7288,137.9339,Nagano,31763.0
19697,Sasaguri,33.6239,130.5262,Fukuoka,31092.0
19700,Katagami,39.8832,139.9886,Akita,31558.0
19754,Kuroishi,40.6426,140.6113,Aomori,31604.0
19767,Maebara,35.114,140.0989,Chiba,31554.0
19796,Ayabe,35.3,135.2667,Kyoto,31537.0
19808,Yawatahama-shi,33.4667,132.4167,Ehime,31363.0
19830,Ibaraki,36.2869,140.4245,Ibaraki,31278.0
19834,Okagaki,33.8536,130.6111,Fukuoka,30891.0
19855,Hitoyoshi,32.2167,130.75,Kumamoto,31332.0
19862,Kaminokawa,36.4393,139.9099,Tochigi,30886.0
19906,Yaita,36.8067,139.9241,Tochigi,31145.0
19973,Nantan,35.1,135.4667,Kyoto,31075.0
20010,Omaezaki,34.6379,138.1281,Shizuoka,30562.0
20014,Kamisato,36.2516,139.1447,Saitama,29987.0
20016,Inami,34.7488,134.9135,Hyogo,30148.0
20043,Kanzakimachi-kanzaki,33.3167,130.3667,Saga,30686.0
20057,Tsuruno,40.8087,140.3801,Aomori,30760.0
20125,Yanai,33.9667,132.1167,Yamaguchi,30461.0
20126,Yunoshima,35.8059,137.2441,Gifu,30641.0
20156,Motomiya,37.5132,140.3938,Fukushima,30253.0
20174,Nanyo,38.0551,140.1476,Yamagata,30343.0
20193,Ono,35.9797,136.4875,Fukui,30449.0
20215,Hirakawacho,40.5841,140.5665,Aomori,30326.0
20217,Togitsu,32.8289,129.8486,Nagasaki,29025.0
20227,Tsuru,35.5515,138.9054,Yamanashi,30193.0
20233,Myoko,37.0252,138.2535,Niigata,30300.0
20286,Matsubushi,35.9258,139.8152,Saitama,28494.0
20293,Sue,33.5872,130.5072,Fukuoka,28489.0
20303,Yoshida,34.7709,138.252,Shizuoka,28811.0
20380,Chikuzen,33.457,130.5952,Fukuoka,29608.0
20451,Inagawa,34.8951,135.3761,Hyogo,29571.0
20530,Kitaakita,40.226,140.3708,Akita,29696.0
20590,Takanezawa,36.631,139.9865,Tochigi,29123.0
20608,Tomi,36.3594,138.3304,Nagano,29213.0
20645,Shibushi,31.5,131.05,Kagoshima,29267.0
20650,Agui,34.9329,136.9153,Aichi,28176.0
20687,Kaminoyama,38.1496,140.2679,Yamagata,29141.0
20694,Ikaruga,34.6088,135.7306,Nara,27330.0
20739,Koshu,35.7043,138.7294,Yamanashi,29017.0
20753,Nirasaki,35.7089,138.4461,Yamanashi,28896.0
20804,Hanawa,40.2158,140.7884,Akita,28929.0
20814,Hirado,33.3667,129.55,Nagasaki,28822.0
20838,Takahashi,34.7914,133.6164,Okayama,28825.0
20840,Asago,35.3333,134.85,Hyogo,28802.0
20848,Ogawa,36.0567,139.2618,Saitama,28386.0
20855,Oyabe,36.6755,136.8687,Toyama,28634.0
20927,Saito,32.1167,131.4,Miyazaki,28618.0
20935,Aioi,34.8,134.4667,Hyogo,28350.0
20967,Izu,34.9765,138.9468,Shizuoka,28493.0
21000,Tsushima,34.2,129.2833,Nagasaki,28456.0
21003,Higashikagawa,34.25,134.3667,Kagawa,28305.0
21027,Taiwa,38.4373,140.8864,Miyagi,28307.0
21098,Hiji,33.3694,131.5324,Oita,27887.0
21099,Obama,35.4957,135.7466,Fukui,28142.0
21121,Honcho,41.8957,140.6944,Hokkaido,28073.0
21138,Mima,34.05,134.1667,Tokushima,28087.0
21162,Tainai,38.0597,139.4103,Niigata,28004.0
21186,Yahaba,39.606,141.1429,Iwate,27638.0
21190,Kakuda,37.977,140.7821,Miyagi,27848.0
21215,Hikawa,35.3929,132.8432,Shimane,27641.0
21237,Kashima,33.1036,130.0989,Saga,27710.0
21290,Ouda-yamaguchi,34.5167,135.9667,Nara,27747.0
21308,Uchinada,36.6536,136.645,Ishikawa,26503.0
21326,Kitsuki,33.4167,131.6167,Oita,27668.0
21330,Itako,35.9471,140.5554,Ibaraki,27373.0
21353,Ukiha,33.35,130.75,Fukuoka,27474.0
21370,Gojo,34.3486,135.6964,Nara,27578.0
21421,Niimi,34.9739,133.4731,Okayama,27526.0
21507,Takahagi,36.7192,140.7167,Ibaraki,27251.0
21536,Awara,36.2113,136.229,Fukui,27107.0
21547,Ichikikushikino,31.7167,130.2667,Kagoshima,27080.0
21558,Akitakata,34.6631,132.7064,Hiroshima,27249.0
21602,Miki,34.2682,134.1344,Kagawa,26859.0
21648,Nayoro,44.3559,142.4632,Hokkaido,27062.0
21687,Tarui,35.3663,136.5379,Gifu,26558.0
21739,Yoro,35.3084,136.5614,Gifu,26565.0
21757,Miyanaga,33.7167,130.6667,Fukuoka,26690.0
21800,Otake,34.2333,132.2167,Hiroshima,26458.0
21803,Toin,35.0741,136.5836,Mie,25658.0
21832,Shingu,33.7167,136.0,Mie,26628.0
21956,Makubetsu,42.9085,143.3561,Hokkaido,26444.0
21974,Ora,36.2524,139.4623,Gunma,25623.0
21983,Arida,34.0833,135.1333,Wakayama,25737.0
21992,Kami,33.6,133.6833,Kochi,26376.0
22054,Saikaicho-kobago,32.9333,129.65,Nagasaki,26188.0
22196,Oguchi,35.3325,136.9078,Aichi,24234.0
22219,Nagai,38.1075,140.0405,Yamagata,25836.0
22225,Tosa,33.5,133.4333,Kochi,25665.0
22231,Omachi,36.503,137.8511,Nagano,25883.0
22257,Miyaki,33.3249,130.4546,Saga,25386.0
22262,Kunisakimachi-tsurugawa,33.5653,131.7311,Oita,25790.0
22297,Ureshinomachi-shimojuku,33.1333,130.0667,Saga,25593.0
22331,Nogi,36.2332,139.7407,Tochigi,24903.0
22332,Ishii,34.0742,134.4406,Tokushima,24856.0
22343,Mimata,31.7307,131.125,Miyazaki,25474.0
22365,Fujikawaguchiko,35.4973,138.7549,Yamanashi,25495.0
22420,Mimasaka,35.0086,134.1486,Okayama,25497.0
22493,Yamagata,35.5061,136.7811,Gifu,25325.0
22597,Aridagawa,34.0575,135.2162,Wakayama,25169.0
22614,Tono,39.3279,141.5334,Iwate,25181.0
22636,Minowa,35.915,137.9819,Nagano,24887.0
22657,Ninohe,40.2713,141.3048,Iwate,25083.0
22691,Kamo,37.6663,139.0402,Niigata,25086.0
22696,Tateyama,36.6636,137.3137,Toyama,24996.0
22711,Iki,33.7497,129.6914,Nagasaki,24873.0
22801,Nemuro,43.3301,145.5829,Hokkaido,24858.0
22821,Aso,32.9483,131.1239,Kumamoto,24820.0
22879,Oga,39.8868,139.8476,Akita,24690.0
22908,Oirase,40.5992,141.3977,Aomori,24407.0
22921,Gose,34.4667,135.7333,Nara,24317.0
22996,Nasukarasuyama,36.6569,140.1514,Tochigi,24456.0
23007,Buzen,33.6167,131.1333,Fukuoka,24369.0
23030,Sakai,36.1085,139.7949,Ibaraki,24035.0
23039,Senboku,39.7017,140.7315,Akita,24515.0
23044,Ogawara,38.0494,140.7308,Miyagi,23586.0
23232,Isa,32.0572,130.6131,Kagoshima,24131.0
23248,Kamiamakusa,32.5,130.4167,Kumamoto,23973.0
23274,Misato,38.5444,141.0567,Miyagi,23796.0
23308,Yugawara,35.1479,139.1083,Kanagawa,23480.0
23367,Wajimazakimachi,37.3906,136.8992,Ishikawa,23906.0
23400,Ikeda,35.4423,136.573,Gifu,23310.0
23427,Nyuzen,36.9335,137.5021,Toyama,23537.0
23450,Takehara,34.3333,132.9167,Hiroshima,23631.0
23485,Hachimantai,39.9561,141.0711,Iwate,23742.0
23506,Tadotsu,34.2729,133.7586,Kagawa,22813.0
23631,Miyoshi,34.026,133.8072,Tokushima,23500.0
23658,Nasu,37.0198,140.121,Tochigi,23435.0
23688,Kumano,34.3358,132.5847,Hiroshima,22760.0
23740,Nakagusuku,26.2678,127.7914,Okinawa,21924.0
23761,Yoshioka,36.4474,139.0097,Gunma,22234.0
23768,Minamata,32.2167,130.4,Kumamoto,23155.0
23779,Mine,34.1631,131.2083,Yamaguchi,23236.0
23792,Gobo,33.8833,135.15,Wakayama,22744.0
23805,Nakashunbetsu,43.5552,144.9714,Hokkaido,23211.0
23904,Nikaho,39.203,139.9077,Akita,22981.0
23910,Meiwa,34.55,136.6167,Mie,22523.0
23950,Ono,35.4706,136.6276,Gifu,22375.0
24016,Ayagawa,34.2496,133.923,Kagawa,22730.0
24028,Mihama,34.7789,136.9082,Aichi,22440.0
24030,Gotsucho,35.0167,132.2167,Shimane,22838.0
24189,Uenohara,35.6302,139.1113,Kanagawa,22557.0
24242,Furukawa,36.2381,137.1862,Gifu,22585.0
24251,Yokoshibahikari,35.6658,140.5048,Chiba,22271.0
24343,Otsuki,35.6106,138.94,Yamanashi,22356.0
24383,Takahata,38.0027,140.1891,Yamagata,22242.0
24417,Murayama,38.4833,140.3833,Yamagata,22222.0
24556,Honmachi,36.0609,136.5006,Fukui,22047.0
24572,Shiroishi,33.1811,130.1434,Saga,21902.0
24644,Bungotakada,33.55,131.45,Oita,21901.0
24730,Shinhidaka,42.3413,142.3686,Hokkaido,21873.0
24745,Fukuyoshi,33.6832,130.78,Fukuoka,21360.0
24749,Yabu,35.4,134.7667,Hyogo,21813.0
24752,Mashiko,36.4673,140.0934,Tochigi,21621.0
24800,Etajima,34.2167,132.45,Hiroshima,21557.0
24840,Kami,38.5718,140.8548,Miyagi,21666.0
25018,Aisho,35.1688,136.2123,Shiga,20913.0
25049,Matsuura,33.3333,129.7167,Nagasaki,21261.0
25101,Shisui,35.7249,140.2695,Chiba,20278.0
25105,Mobetsu,44.3564,143.3544,Hokkaido,21317.0
25205,Yachiyo,36.1816,139.8911,Ibaraki,20838.0
25248,Hino,35.018,136.246,Shiga,20945.0
25261,Furano,43.342,142.3832,Hokkaido,21071.0
25497,Ino,33.5487,133.4278,Kochi,20750.0
25579,Shimogamo,34.6795,138.9453,Shizuoka,20499.0
25649,Nishigo,37.1417,140.1554,Fukushima,20508.0
25674,Ryuyo,34.6783,137.8167,Shizuoka,19756.0
25683,Bibai,43.3329,141.8538,Hokkaido,20507.0
25686,Susaki,33.3925,133.2931,Kochi,20424.0
25704,Namegawa,36.066,139.361,Saitama,19885.0
25729,Sakae,35.8408,140.2439,Chiba,19902.0
25750,Tobe,33.7492,132.7922,Ehime,20290.0
25752,Takanabe,32.128,131.5033,Miyazaki,20030.0
25882,Rumoi,43.941,141.637,Hokkaido,20260.0
25888,Hirokawa,33.2415,130.5515,Fukuoka,19801.0
25923,Hakui,36.8936,136.779,Ishikawa,20031.0
26015,Satsuma,31.9057,130.4556,Kagoshima,20093.0
26043,Fukagawa,43.7233,142.0536,Hokkaido,20086.0
26084,Makurazaki,31.2728,130.2969,Kagoshima,19817.0
26093,Shirahama,33.6781,135.3481,Wakayama,19976.0
26110,Shonai,38.8499,139.9047,Yamagata,19977.0
26226,Yosano,35.5653,135.1529,Kyoto,19726.0
26285,Echizen,35.9742,136.1298,Fukui,19708.0
26295,Kitatajima,35.9821,139.4816,Saitama,19362.0
26331,Karuizawa,36.3484,138.597,Gunma,19648.0
26360,Taketa,32.9667,131.4,Oita,19688.0
26506,Fukusaki,34.9503,134.7603,Hyogo,19143.0
26523,Ibigawa,35.4873,136.5686,Gifu,19519.0
26572,Godo,35.4174,136.6085,Gifu,18505.0
26585,Kushiro,42.9961,144.4661,Hokkaido,19391.0
26599,Onga,33.8479,130.6683,Fukuoka,18609.0
26621,Mino,35.5448,136.9076,Gifu,19266.0
26640,Kamiichi,36.6984,137.3624,Toyama,19318.0
26660,Iiyama,36.8516,138.3655,Nagano,19279.0
26662,Mukaiengaru,44.0621,143.5276,Hokkaido,19358.0
26696,Taka,35.0503,134.9234,Hyogo,19227.0
26796,Ainan,32.9667,132.5833,Ehime,19131.0
26798,Mure,34.3376,134.1397,Kagawa,18108.0
26813,Sukumo,32.9333,132.7167,Kochi,19124.0
26844,Arita,33.2106,129.849,Saga,18867.0
26849,Akune,32.0167,130.2167,Kagoshima,19009.0
26851,Aizumisato,37.4649,139.8342,Fukushima,19078.0
26856,Shichigahama,38.3045,141.0591,Miyagi,17793.0
26873,Eiheiji,36.0922,136.2987,Fukui,18921.0
26905,Shimomura,36.0696,138.0802,Nagano,18801.0
26999,Motomachi,43.8242,144.1074,Hokkaido,18943.0
27132,Heguri,34.6292,135.7006,Nara,18088.0
27227,Miyatoko,33.6992,130.9202,Fukuoka,18599.0
27326,Tatsuno,35.9824,137.9876,Nagano,18503.0
27337,Misato,39.4616,140.5821,Akita,18493.0
27341,Yoshimi,36.0399,139.4538,Saitama,18133.0
27343,Kunitomi,31.9906,131.3235,Miyazaki,18460.0
27390,Ranzan,36.0565,139.3205,Saitama,17954.0
27408,Toyono,34.9189,135.4941,Osaka,18011.0
27427,Kitanakagusuku,26.3011,127.7931,Okinawa,17038.0
27521,Taku,33.2833,130.1167,Saga,18215.0
27540,Yoichi,43.1953,140.7835,Hokkaido,18252.0
27555,Memuro-minami,42.9119,143.0508,Hokkaido,18329.0
27571,Shika,37.0062,136.778,Ishikawa,18275.0
27600,Oyama,35.3601,138.9873,Kanagawa,18181.0
27649,Kishi,35.3364,139.1232,Kanagawa,18204.0
27659,Oi,35.3266,139.1565,Kanagawa,17062.0
27663,Kiyama,33.427,130.5232,Fukuoka,17455.0
27681,Rikuzen-Takata,39.028,141.6254,Iwate,18153.0
27751,Minamishibetsucho,44.1786,142.4001,Hokkaido,18138.0
27879,Shirosato,36.4792,140.3762,Ibaraki,17916.0
28005,Arai,34.6833,137.5667,Shizuoka,16975.0
28036,Mitake,35.4344,137.1307,Gifu,17536.0
28098,Kahoku,38.4263,140.3143,Yamagata,17435.0
28175,Kitahiroshima,34.6746,132.5384,Hiroshima,17669.0
28260,Hinode,35.7421,139.2574,Tokyo,17016.0
28293,Toba,34.4813,136.8434,Mie,17421.0
28313,Ebino,32.0333,130.8167,Miyazaki,17508.0
28318,Shin-Kamigoto,32.9844,129.0733,Nagasaki,17479.0
28326,Miharu,37.4406,140.4932,Fukushima,17319.0
28395,Kadogawa,32.4712,131.6461,Miyazaki,17341.0
28421,Mori,34.8356,137.9271,Shizuoka,17333.0
28462,Manno,34.1923,133.8414,Kagawa,17324.0
28640,Minakami,36.6786,138.9991,Gunma,17223.0
28641,Minamichita,34.7151,136.9298,Aichi,16805.0
28672,Tsuiki,33.6561,131.0562,Fukuoka,17067.0
28807,Yabuki,37.2013,140.3386,Fukushima,16823.0
29045,Kumage,34.0495,131.969,Yamaguchi,16666.0
29046,Oyodo,34.3906,135.7897,Nara,16469.0
29047,Katsuura,35.15,140.3167,Chiba,16723.0
29158,Kushima,31.4681,131.2467,Miyazaki,16744.0
29182,Kawagoe,35.0167,136.6667,Mie,15048.0
29191,Shintomi,32.0689,131.488,Miyazaki,16495.0
29236,Sunagawa,43.4948,141.9035,Hokkaido,16513.0
29264,Yoshinogari,33.3212,130.3989,Saga,16324.0
29286,Shiraoi,42.5512,141.3559,Hokkaido,16638.0
29303,Miyazu,35.5333,135.2,Kyoto,16564.0
29321,Mifune,32.7146,130.8019,Kumamoto,16468.0
29326,Nakanoto,36.9889,136.9015,Ishikawa,16442.0
29398,Nanbu,40.4206,141.3303,Aomori,16449.0
29447,Tohoku,40.7279,141.2579,Aomori,16449.0
29595,Oarai,36.3133,140.5749,Ibaraki,15696.0
29654,Kumiyama,34.8814,135.7328,Kyoto,15200.0
29667,Kotoura,35.5,133.7,Tottori,16167.0
29792,Yurihama,35.4899,133.8646,Tottori,15972.0
29811,Owase,34.0708,136.191,Mie,16079.0
29830,Aki,33.5,133.9,Kochi,16090.0
29876,Minamiminowa,35.8729,137.9751,Nagano,15727.0
29877,Kanan,34.4917,135.6296,Osaka,15497.0
29902,Nagasu,32.9297,130.4528,Kumamoto,15299.0
29937,Tachiarai,33.3724,130.6224,Fukuoka,15387.0
30176,Tsukumiura,33.0667,131.8667,Oita,15664.0
30197,Gonohe,40.5312,141.308,Aomori,15761.0
30199,Kumano,33.8886,136.1002,Mie,15806.0
30292,Miyota,36.3223,138.5068,Nagano,15494.0
30294,Matsushige,34.1339,134.5803,Tokushima,14723.0
30307,Kasumi,35.6333,134.6333,Hyogo,15704.0
30338,Yazu,35.4092,134.2505,Tottori,15642.0
30362,Yakumo,42.256,140.2652,Hokkaido,15674.0
30365,Ashikita,32.2991,130.4932,Kumamoto,15621.0
30397,Kasagi,34.2965,135.5037,Wakayama,15565.0
30407,Tobetsu,43.2237,141.517,Hokkaido,15618.0
30424,Tone,35.8578,140.1392,Ibaraki,15035.0
30447,Shizukuishi,39.6963,140.9758,Iwate,15589.0
30513,Shimanto,33.2117,133.1369,Kochi,15540.0
30521,Sayo,35.0042,134.3558,Hyogo,15508.0
30527,Kawasaki,33.6,130.8149,Fukuoka,15134.0
30553,Daigo,36.7681,140.3552,Ibaraki,15491.0
30622,Tamaki,34.4902,136.6308,Mie,15113.0
30681,Kanegasaki,39.1957,141.1163,Iwate,15337.0
30693,Daisen,35.5,133.5,Tottori,15336.0
30754,Wakuya,38.5397,141.1282,Miyagi,15177.0
30785,Noto,37.3103,137.1477,Ishikawa,15280.0
30801,Kurate,33.7919,130.6742,Fukuoka,14901.0
30802,Kawaminami,32.192,131.5259,Miyazaki,15151.0
30832,Kamitonda,33.6963,135.4288,Wakayama,15040.0
30886,Kujukuri,35.5333,140.4333,Chiba,14652.0
30905,Uchiko,33.533,132.6583,Ehime,15191.0
30926,Nakanojomachi,36.5898,138.841,Gunma,15186.0
30966,Kutchan,42.9017,140.7589,Hokkaido,15123.0
31057,Anpachi,35.3353,136.6654,Gifu,14330.0
31127,Aizubange,37.5615,139.8216,Fukushima,14906.0
31158,Haga,36.5483,140.0582,Tochigi,14833.0
31227,Mitane,40.1016,140.005,Akita,14944.0
31235,Nakagawa,36.7363,140.1726,Tochigi,14921.0
31302,Sera,34.5868,133.0566,Hiroshima,14878.0
31311,Misaki,34.3169,135.1421,Osaka,14629.0
31351,Mori,42.105,140.5764,Hokkaido,14851.0
31381,Fujisaki,40.6561,140.5028,Aomori,14478.0
31418,Betsukai,43.3938,145.1175,Hokkaido,14828.0
31477,Hirono,40.4085,141.7187,Iwate,14757.0
31482,Tabuse,33.9547,132.0414,Yamaguchi,14515.0
31489,Obanazawa,38.6,140.4,Yamagata,14760.0
31521,Kushimoto,33.4667,135.7833,Wakayama,14661.0
31525,Nishinoomote,30.7322,130.9967,Kagoshima,14694.0
31587,Ashiya,33.8938,130.6639,Fukuoka,13559.0
31616,Suo-Oshima,33.9276,132.1952,Yamaguchi,14605.0
31630,Shinto,36.4384,138.9671,Gunma,14193.0
31696,Ichikawamisato,35.5652,138.5024,Yamanashi,14458.0
31774,Oki,33.2104,130.4398,Fukuoka,13847.0
31788,Hasami,33.1379,129.8955,Nagasaki,14332.0
31807,Miho,36.0045,140.3019,Ibaraki,14355.0
31846,Asagiri,32.2403,130.8979,Kumamoto,14448.0
31977,Kihoku,34.2114,136.3372,Mie,14392.0
31982,Yamada,39.4677,141.9489,Iwate,14388.0
32079,Itakura,36.2259,139.6019,Gunma,14039.0
32080,Furukawamen,33.2384,129.6504,Nagasaki,13942.0
32106,Tsukawaki,33.2832,131.1515,Oita,14306.0
32120,Ishikawa,37.1571,140.4468,Fukushima,14222.0
32196,Taki,34.4961,136.5462,Mie,14160.0
32209,Kawaii,38.0045,140.0458,Yamagata,14196.0
32242,Shichinohe,40.7447,141.1579,Aomori,14217.0
32247,Hokuei,35.4833,133.7667,Tottori,14010.0
32272,Hayashima,34.6006,133.8283,Okayama,12584.0
32285,Sakaki,36.4618,138.1801,Nagano,13967.0
32301,Minamiaizu,37.2004,139.7732,Fukushima,14204.0
32337,Seiro,37.9745,139.2742,Niigata,13823.0
32346,Kadena,26.3616,127.7553,Okinawa,13301.0
32368,Kakunodatemachi,39.5963,140.562,Akita,14138.0
32374,Kisanuki,31.3444,130.9452,Kagoshima,14114.0
32404,Chosei,35.4167,140.35,Chiba,13656.0
32417,Fujikawa,35.5612,138.4613,Yamanashi,14004.0
32589,Taishi,34.5187,135.6476,Osaka,13092.0
32606,Nachikatsuura,33.6261,135.9411,Wakayama,13930.0
32624,Tako,35.7356,140.4677,Chiba,13804.0
32690,Wakasa,35.5489,135.9082,Fukui,13867.0
32695,Fujimi,35.9146,138.2407,Nagano,13844.0
32719,Kamigori,34.8736,134.3561,Hyogo,13835.0
32764,Higashimiyoshi,34.0368,133.9369,Tokushima,13776.0
32774,Hatoyama,35.9815,139.3341,Saitama,13365.0
32832,Yamanobe,38.2891,140.2622,Yamagata,13610.0
32894,Shodoshima,34.4798,134.3089,Kagawa,13646.0
32906,Chiran,31.3783,130.4416,Kagoshima,13667.0
32916,Tarumizu,31.5228,130.7594,Kagoshima,13688.0
32984,Kawatana,33.0728,129.8613,Nagasaki,13370.0
33105,Okinoshima,36.2091,133.3218,Shimane,13595.0
33189,Ugo,39.1993,140.4129,Akita,13547.0
33330,Keisen,33.5788,130.6781,Fukuoka,12876.0
33395,Wake,34.8029,134.1575,Okayama,13373.0
33423,Itano,34.1443,134.4626,Tokushima,13087.0
33442,Inawashiro,37.5578,140.1048,Fukushima,13403.0
33470,Saka,34.3412,132.5136,Hiroshima,12611.0
33505,Matsushima,38.3802,141.0673,Miyagi,13151.0
33554,Tonosho,35.8372,140.6687,Chiba,13085.0
33560,Yakage,34.6275,133.5872,Okayama,13218.0
33576,Kamikawa,36.2139,139.1017,Saitama,13077.0
33585,Tanagura,37.0299,140.3796,Fukushima,13264.0
33635,Hashikami,40.4525,141.6211,Aomori,13176.0
33639,Motobu,26.6575,127.8978,Okinawa,13073.0
33714,Shin'onsen,35.6235,134.4489,Hyogo,13213.0
33773,Yamato,32.6858,130.9859,Kumamoto,13210.0
34007,Tonosho,34.4869,134.1884,Kagawa,12915.0
34208,Itayanagi,40.6959,140.4572,Aomori,12681.0
34249,Yuza,39.0148,139.9088,Yamagata,12895.0
34265,Misaki,34.9979,133.9582,Okayama,12889.0
34286,Takamori,35.5138,137.8739,Nagano,12650.0
34300,Asahi,35.0343,136.6644,Mie,11070.0
34507,Suzu,37.4363,137.2605,Ishikawa,12746.0
34522,Ashibetsu,43.5182,142.1896,Hokkaido,12775.0
34547,Kanra,36.243,138.9218,Gunma,12567.0
34586,Kyotamba,35.1699,135.4194,Kyoto,12714.0
34607,Shirataka,38.1831,140.0986,Yamagata,12663.0
34715,Kasaishi,37.2528,140.3434,Fukushima,12282.0
34787,Kawamata,37.665,140.5983,Fukushima,12537.0
34853,Matsukawa,35.5972,137.9097,Nagano,12435.0
35056,Nobeji,40.8644,141.1287,Aomori,12352.0
35106,Tsuruta,40.7588,140.4284,Aomori,12211.0
35248,Higashiagatsuma,36.5714,138.8203,Gunma,12356.0
35443,Marumori,37.9114,140.7654,Miyagi,12251.0
35454,Sakawa,33.5008,133.2866,Kochi,12170.0
35594,Osako,31.4292,131.0059,Kagoshima,12092.0
35664,Hirao,33.9379,132.0732,Yamaguchi,11831.0
35673,Hodatsushimizu,36.8627,136.7976,Ishikawa,12061.0
35701,Iwanai,42.9798,140.5146,Hokkaido,11982.0
35760,Ichinomiya,35.3667,140.3667,Chiba,11622.0
35785,Iwate,39.9728,141.2122,Iwate,12078.0
35836,Ryuo,35.0608,136.1245,Shiga,11821.0
35981,Urakawa,42.1684,142.7682,Hokkaido,11998.0
36078,Tosashimizu,32.7833,132.95,Kochi,11925.0
36162,Yamamoto,37.9627,140.8781,Miyagi,11736.0
36179,Kagamino,35.0918,133.933,Okayama,11882.0
36270,Satosho,34.5138,133.5569,Okayama,10969.0
36297,Yakushima,30.3903,130.6515,Kagoshima,11829.0
36584,Kamiita,34.1213,134.4049,Tokushima,11370.0
36585,Motegi,36.5321,140.1876,Tochigi,11631.0
36609,Mitai,32.7117,131.3077,Miyazaki,11642.0
36611,Koori,37.8547,140.5207,Fukushima,11425.0
36613,Minabe,33.7725,135.3206,Wakayama,11594.0
36682,Hidaka,42.4803,142.0743,Hokkaido,11648.0
36795,Okuizumo,35.1973,133.0023,Shimane,11570.0
36824,Muroto-misakicho,33.29,134.1519,Kochi,11543.0
36875,Yuasa,34.0294,135.1903,Wakayama,11038.0
36910,Tagami,37.6988,139.058,Niigata,11200.0
36919,Kin,26.4562,127.926,Okinawa,11252.0
36936,Higashiizu,34.7667,139.0333,Shizuoka,11389.0
36953,Kuriyama,43.0563,141.7843,Hokkaido,11474.0
37164,Zao,38.0981,140.6587,Miyagi,11360.0
37256,Ichikai,36.5431,140.1022,Tochigi,11205.0
37347,Ichinohe,40.2129,141.2954,Iwate,11296.0
37355,Chiyoda,36.2178,139.4424,Gunma,10831.0
37375,Honmachi,43.9115,144.6708,Hokkaido,11302.0
37497,Meiwa,36.2113,139.5342,Gunma,10714.0
37666,Ogose,35.9645,139.2942,Saitama,10905.0
37706,Ichikawa,34.9893,134.7633,Hyogo,11023.0
37721,Yamanouchi,36.7446,138.4127,Nagano,11106.0
37733,Nakagawa,33.9511,134.6622,Tokushima,10576.0
37753,Hikawadai,32.5825,130.6737,Kumamoto,11038.0
37762,Shoo,35.0418,134.1162,Okayama,10933.0
37839,Miyato,36.1772,139.1814,Gunma,10783.0
37924,Onna,26.4833,127.85,Okinawa,10852.0
37934,Obuse,36.6975,138.3121,Nagano,10510.0
37984,Hakone,35.1894,139.0247,Kanagawa,10925.0
38162,Minamiise,34.3521,136.7036,Mie,10926.0
38178,Matsuda-soryo,35.3482,139.1394,Kanagawa,10682.0
38186,Minamisanriku,38.6806,141.4624,Miyagi,10896.0
38338,Asahi,36.9462,137.5599,Toyama,10852.0
38535,Ogano,36.0171,139.0086,Saitama,10751.0
38630,Otsuchi,39.3582,141.8994,Iwate,10719.0
38658,Iwai,35.5833,134.3333,Tottori,10675.0
38783,Nakayama,38.3331,140.2831,Yamagata,10617.0
38915,Tokigawa,36.0086,139.2968,Saitama,10470.0
38926,Shirako,35.4543,140.3742,Chiba,10280.0
38956,Murata,38.1185,140.7224,Miyagi,10506.0
39023,Kamikawa,35.0642,134.7397,Hyogo,10557.0
39055,Rokunohe,40.6095,141.3248,Aomori,10473.0
39116,Naganuma,43.0102,141.6951,Hokkaido,10515.0
39147,Hoki,35.3852,133.4073,Tottori,10491.0
39198,Kamifurano,43.4556,142.4672,Hokkaido,10500.0
39221,Kiho,33.7333,136.0,Mie,10404.0
39222,Kibichuo,34.8634,133.6935,Okayama,10495.0
39381,Minobu,35.4675,138.4424,Yamanashi,10440.0
39446,Kiso,35.9363,137.7831,Nagano,10429.0
39672,Nanbu,35.3403,133.3267,Tottori,10275.0
39871,Higashikagura,43.6966,142.4515,Hokkaido,10152.0
39895,Tokunoshima,27.7266,129.0187,Okinawa,10194.0
39910,Minamiaso,32.8167,131.0333,Kumamoto,10212.0
39966,Iizuna,36.7547,138.2355,Nagano,10134.0
40040,Nishi,32.2011,130.8411,Kumamoto,10121.0
40128,Shioya,36.7776,139.8506,Tochigi,10152.0
40150,Kushijima,32.7401,130.7573,Kumamoto,9624.0
40199,Takahama,35.4903,135.551,Fukui,10047.0
40218,Kawara,33.668,130.8473,Fukuoka,9955.0
40310,Yaotsu,35.476,137.1416,Gifu,10070.0
40328,Rokkasho,40.9672,141.3744,Aomori,10099.0
40338,Iwashita,32.6516,130.8114,Kumamoto,9963.0
40361,Kuroshio,33.0167,133.0167,Kochi,10073.0
40396,Onan,34.8939,132.4378,Shimane,10086.0
40440,Sakuho,36.161,138.4834,Nagano,10042.0
40501,Tsuno,32.2565,131.5597,Miyazaki,9972.0
40629,Kami-kawabe,35.4866,137.0707,Gifu,9784.0
40659,Hiranai,40.9259,140.9559,Aomori,9964.0
41158,Biei,43.5883,142.4669,Hokkaido,9775.0
41270,Nakao,35.3307,139.2188,Kanagawa,9272.0
41315,Akabira,43.5581,142.0442,Hokkaido,9644.0
41607,Yamakita,35.3606,139.0838,Kanagawa,9530.0
41705,Ikeda,36.4212,137.8746,Nagano,9292.0
41730,Nakoushi,26.6825,127.9728,Okinawa,9275.0
41778,Minano,36.0708,139.0988,Saitama,9338.0
42114,Shimizu,43.0113,142.8846,Hokkaido,9305.0
42330,Hirayama,33.6467,130.5001,Fukuoka,8986.0
42416,Fujisawacho-niinuma,38.8585,141.3493,Iwate,9112.0
42423,Nagaoki,32.9781,130.6057,Kumamoto,9092.0
42521,Iijima,35.6767,137.9198,Nagano,9038.0
42916,Sekimachi,33.0598,130.5438,Kumamoto,8821.0
43110,Taragi,32.264,130.9357,Kumamoto,8800.0
43111,Soeda,33.5718,130.854,Fukuoka,8786.0
43150,Otaki,35.2852,140.2454,Chiba,8762.0
43245,Miyada,35.7689,137.9443,Nagano,8616.0
43406,Hakubacho,36.6981,137.8619,Nagano,8621.0
43466,Takaharu,31.9284,131.0079,Miyazaki,8511.0
43516,Iwaizumi,39.8431,141.7964,Iwate,8549.0
44112,Torihama,35.6006,135.9406,Fukui,9643.0
