[{
  "_id": {
    "$oid": "65badb61301b15f1e5c0c6f4"
  },
  "": 0,
  "name": "Hokkaido University",
  "state": "Hokaido",
  "latitude": 43.070446,
  "longitude": 141.347153,
  "review_rating": 4.16,
  "difficulty_rank": "A"
},
{
  "_id": {
    "$oid": "65badb61301b15f1e5c0c6f5"
  },
  "": 1,
  "name": "Hokkaido University of Education",
  "state": "Hokaido",
  "latitude": 43.170498,
  "longitude": 141.393753,
  "review_rating": 3.79,
  "difficulty_rank": "D"
},
{
  "_id": {
    "$oid": "65badb61301b15f1e5c0c6f6"
  },
  "": 2,
  "name": "Muroran Institute of Technology",
  "state": "Hokaido",
  "latitude": 42.378716,
  "longitude": 141.034042,
  "review_rating": 3.66,
  "difficulty_rank": "F"
},
{
  "_id": {
    "$oid": "65badb61301b15f1e5c0c6f7"
  },
  "": 3,
  "name": "Otaru University of Commerce",
  "state": "Hokaido",
  "latitude": 43.190952,
  "longitude": 140.97937,
  "review_rating": 3.8,
  "difficulty_rank": "C"
},
{
  "_id": {
    "$oid": "65badb61301b15f1e5c0c6f8"
  },
  "": 4,
  "name": "Obihiro University of Agriculture And Veterinary Medicine",
  "state": "Hokaido",
  "latitude": 42.872356,
  "longitude": 143.177979,
  "review_rating": 4.2,
  "difficulty_rank": "B"
},
{
  "_id": {
    "$oid": "65badb61301b15f1e5c0c6f9"
  },
  "": 5,
  "name": "Asahikawa Medical University",
  "state": "Hokaido",
  "latitude": 43.730633,
  "longitude": 142.381897,
  "review_rating": 3.93,
  "difficulty_rank": "B"
},
{
  "_id": {
    "$oid": "65badb61301b15f1e5c0c6fa"
  },
  "": 6,
  "name": "Kitami Institute of Technology",
  "state": "Hokaido",
  "latitude": 43.822479,
  "longitude": 143.905716,
  "review_rating": 3.66,
  "difficulty_rank": "E"
},
{
  "_id": {
    "$oid": "65badb61301b15f1e5c0c6fb"
  },
  "": 7,
  "name": "Hirosaki University",
  "state": "Aomori",
  "latitude": 40.587959,
  "longitude": 140.472061,
  "review_rating": 3.84,
  "difficulty_rank": "D"
},
{
  "_id": {
    "$oid": "65badb61301b15f1e5c0c6fc"
  },
  "": 8,
  "name": "Iwate University",
  "state": "Iwate",
  "latitude": 39.712715,
  "longitude": 141.137711,
  "review_rating": 3.89,
  "difficulty_rank": "D"
},
{
  "_id": {
    "$oid": "65badb61301b15f1e5c0c6fd"
  },
  "": 9,
  "name": "Tohoku University",
  "state": "Miyagi",
  "latitude": 38.252632,
  "longitude": 140.873932,
  "review_rating": 4.18,
  "difficulty_rank": "A"
},
{
  "_id": {
    "$oid": "65badb61301b15f1e5c0c6fe"
  },
  "": 10,
  "name": "Miyagi University of Education",
  "state": "Miyagi",
  "latitude": 38.258968,
  "longitude": 140.830948,
  "review_rating": 3.95,
  "difficulty_rank": "D"
},
{
  "_id": {
    "$oid": "65badb61301b15f1e5c0c6ff"
  },
  "": 11,
  "name": "Akita University",
  "state": "Akita",
  "latitude": 39.726997,
  "longitude": 140.134094,
  "review_rating": 3.8,
  "difficulty_rank": "D"
},
{
  "_id": {
    "$oid": "65badb61301b15f1e5c0c700"
  },
  "": 12,
  "name": "Yamagata University",
  "state": "Yamagata",
  "latitude": 38.246128,
  "longitude": 140.349655,
  "review_rating": 3.76,
  "difficulty_rank": "D"
},
{
  "_id": {
    "$oid": "65badb61301b15f1e5c0c701"
  },
  "": 13,
  "name": "Fukushima University",
  "state": "Fukushima",
  "latitude": 37.682877,
  "longitude": 140.454041,
  "review_rating": 3.72,
  "difficulty_rank": "E"
},
{
  "_id": {
    "$oid": "65badb61301b15f1e5c0c702"
  },
  "": 14,
  "name": "Ibaraki University",
  "state": "Ibaraki",
  "latitude": 36.401237,
  "longitude": 140.442764,
  "review_rating": 3.81,
  "difficulty_rank": "D"
},
{
  "_id": {
    "$oid": "65badb61301b15f1e5c0c703"
  },
  "": 15,
  "name": "University of Tsukuba",
  "state": "Ibaraki",
  "latitude": 36.108723,
  "longitude": 140.100632,
  "review_rating": 4.17,
  "difficulty_rank": "A"
},
{
  "_id": {
    "$oid": "65badb61301b15f1e5c0c704"
  },
  "": 16,
  "name": "Tsukuba University of Technology",
  "state": "Ibaraki",
  "latitude": 36.10537,
  "longitude": 140.110474,
  "review_rating": 4.12,
  "difficulty_rank": "F"
},
{
  "_id": {
    "$oid": "65badb61301b15f1e5c0c705"
  },
  "": 17,
  "name": "Utsunomiya University",
  "state": "Tochigi",
  "latitude": 36.550312,
  "longitude": 139.914886,
  "review_rating": 3.95,
  "difficulty_rank": "C"
},
{
  "_id": {
    "$oid": "65badb61301b15f1e5c0c706"
  },
  "": 18,
  "name": "Gunma University",
  "state": "Gunma",
  "latitude": 36.430313,
  "longitude": 139.045197,
  "review_rating": 3.88,
  "difficulty_rank": "C"
},
{
  "_id": {
    "$oid": "65badb61301b15f1e5c0c707"
  },
  "": 19,
  "name": "Saitama University",
  "state": "Saitama",
  "latitude": 35.862579,
  "longitude": 139.608246,
  "review_rating": 3.88,
  "difficulty_rank": "C"
},
{
  "_id": {
    "$oid": "65badb61301b15f1e5c0c708"
  },
  "": 20,
  "name": "Chiba University",
  "state": "Chiba",
  "latitude": 35.625977,
  "longitude": 140.103653,
  "review_rating": 4.07,
  "difficulty_rank": "B"
},
{
  "_id": {
    "$oid": "65badb61301b15f1e5c0c709"
  },
  "": 21,
  "name": "The University of Tokyo",
  "state": "Tokyo",
  "latitude": 35.714146,
  "longitude": 139.763214,
  "review_rating": 4.34,
  "difficulty_rank": "S"
},
{
  "_id": {
    "$oid": "65badb61301b15f1e5c0c70a"
  },
  "": 22,
  "name": "Tokyo Medical And Dental University",
  "state": "Tokyo",
  "latitude": 35.701828,
  "longitude": 139.765274,
  "review_rating": 4.23,
  "difficulty_rank": "A"
},
{
  "_id": {
    "$oid": "65badb61301b15f1e5c0c70b"
  },
  "": 23,
  "name": "Tokyo University of Foreign Studies",
  "state": "Tokyo",
  "latitude": 35.672707,
  "longitude": 139.521042,
  "review_rating": 4.19,
  "difficulty_rank": "A"
},
{
  "_id": {
    "$oid": "65badb61301b15f1e5c0c70c"
  },
  "": 24,
  "name": "Tokyo Gakugei University",
  "state": "Tokyo",
  "latitude": 35.706203,
  "longitude": 139.49176,
  "review_rating": 4.08,
  "difficulty_rank": "B"
},
{
  "_id": {
    "$oid": "65badb61301b15f1e5c0c70d"
  },
  "": 25,
  "name": "Tokyo University of Agriculture And Technology",
  "state": "Tokyo",
  "latitude": 35.683945,
  "longitude": 139.478668,
  "review_rating": 4,
  "difficulty_rank": "B"
},
{
  "_id": {
    "$oid": "65badb61301b15f1e5c0c70e"
  },
  "": 26,
  "name": "Tokyo University of The Arts",
  "state": "Tokyo",
  "latitude": 35.719269,
  "longitude": 139.772217,
  "review_rating": 4.25,
  "difficulty_rank": "B"
},
{
  "_id": {
    "$oid": "65badb61301b15f1e5c0c70f"
  },
  "": 27,
  "name": "Tokyo Institute of Technology",
  "state": "Tokyo",
  "latitude": 35.606895,
  "longitude": 139.684875,
  "review_rating": 4.25,
  "difficulty_rank": "S"
},
{
  "_id": {
    "$oid": "65badb61301b15f1e5c0c710"
  },
  "": 28,
  "name": "Tokyo University of Marine Science And Technology",
  "state": "Tokyo",
  "latitude": 35.626247,
  "longitude": 139.746521,
  "review_rating": 4.16,
  "difficulty_rank": "C"
},
{
  "_id": {
    "$oid": "65badb61301b15f1e5c0c711"
  },
  "": 29,
  "name": "Ochanomizu University",
  "state": "Tokyo",
  "latitude": 35.71973,
  "longitude": 139.733475,
  "review_rating": 4.3,
  "difficulty_rank": "A"
},
{
  "_id": {
    "$oid": "65badb61301b15f1e5c0c712"
  },
  "": 30,
  "name": "The University of Electro - Communications",
  "state": "Tokyo",
  "latitude": 35.657433,
  "longitude": 139.544327,
  "review_rating": 3.92,
  "difficulty_rank": "B"
},
{
  "_id": {
    "$oid": "65badb61301b15f1e5c0c713"
  },
  "": 31,
  "name": "Hitotsubashi University",
  "state": "Tokyo",
  "latitude": 35.694389,
  "longitude": 139.443649,
  "review_rating": 4.26,
  "difficulty_rank": "S"
},
{
  "_id": {
    "$oid": "65badb61301b15f1e5c0c714"
  },
  "": 32,
  "name": "Yokohama National University",
  "state": "Kanagawa",
  "latitude": 35.476898,
  "longitude": 139.591476,
  "review_rating": 3.9,
  "difficulty_rank": "A"
},
{
  "_id": {
    "$oid": "65badb61301b15f1e5c0c715"
  },
  "": 33,
  "name": "Niigata University",
  "state": "Niigata",
  "latitude": 37.867237,
  "longitude": 138.943573,
  "review_rating": 3.86,
  "difficulty_rank": "C"
},
{
  "_id": {
    "$oid": "65badb61301b15f1e5c0c716"
  },
  "": 34,
  "name": "Nagaoka University of Technology",
  "state": "Niigata",
  "latitude": 37.424774,
  "longitude": 138.778793,
  "review_rating": 3.95,
  "difficulty_rank": "E"
},
{
  "_id": {
    "$oid": "65badb61301b15f1e5c0c717"
  },
  "": 35,
  "name": "Joetsu University of Education",
  "state": "Niigata",
  "latitude": 37.134945,
  "longitude": 138.22644,
  "review_rating": 4.09,
  "difficulty_rank": "C"
},
{
  "_id": {
    "$oid": "65badb61301b15f1e5c0c718"
  },
  "": 36,
  "name": "University of Toyama",
  "state": "Toyama",
  "latitude": 36.699642,
  "longitude": 137.187057,
  "review_rating": 3.81,
  "difficulty_rank": "C"
},
{
  "_id": {
    "$oid": "65badb61301b15f1e5c0c719"
  },
  "": 37,
  "name": "Kanazawa University",
  "state": "Ishikawa",
  "latitude": 36.545948,
  "longitude": 136.709442,
  "review_rating": 3.76,
  "difficulty_rank": "C"
},
{
  "_id": {
    "$oid": "65badb61301b15f1e5c0c71a"
  },
  "": 38,
  "name": "University of Fukui",
  "state": "Fukui",
  "latitude": 36.074238,
  "longitude": 136.212402,
  "review_rating": 3.83,
  "difficulty_rank": "C"
},
{
  "_id": {
    "$oid": "65badb61301b15f1e5c0c71b"
  },
  "": 39,
  "name": "University of Yamanashi",
  "state": "Yamanashi",
  "latitude": 35.678509,
  "longitude": 138.57341,
  "review_rating": 3.82,
  "difficulty_rank": "D"
},
{
  "_id": {
    "$oid": "65badb61301b15f1e5c0c71c"
  },
  "": 40,
  "name": "Shinshu University",
  "state": "Nagano",
  "latitude": 36.249428,
  "longitude": 137.978943,
  "review_rating": 3.93,
  "difficulty_rank": "C"
},
{
  "_id": {
    "$oid": "65badb61301b15f1e5c0c71d"
  },
  "": 41,
  "name": "Gifu University",
  "state": "Gifu",
  "latitude": 35.46553,
  "longitude": 136.737625,
  "review_rating": 3.93,
  "difficulty_rank": "C"
},
{
  "_id": {
    "$oid": "65badb61301b15f1e5c0c71e"
  },
  "": 42,
  "name": "National University Corporation Shizuoka University",
  "state": "Shizuoka",
  "latitude": 34.966625,
  "longitude": 138.431412,
  "review_rating": 3.94,
  "difficulty_rank": "C"
},
{
  "_id": {
    "$oid": "65badb61301b15f1e5c0c71f"
  },
  "": 43,
  "name": "Hamamatsu University School of Medicine",
  "state": "Shizuoka",
  "latitude": 34.76965,
  "longitude": 137.74408,
  "review_rating": 3.89,
  "difficulty_rank": "S"
},
{
  "_id": {
    "$oid": "65badb61301b15f1e5c0c720"
  },
  "": 44,
  "name": "Nagoya University",
  "state": "Aichi",
  "latitude": 35.155655,
  "longitude": 136.964676,
  "review_rating": 4.22,
  "difficulty_rank": "A"
},
{
  "_id": {
    "$oid": "65badb61301b15f1e5c0c721"
  },
  "": 45,
  "name": "Aichi University of Education",
  "state": "Aichi",
  "latitude": 35.051189,
  "longitude": 137.049667,
  "review_rating": 3.87,
  "difficulty_rank": "C"
},
{
  "_id": {
    "$oid": "65badb61301b15f1e5c0c722"
  },
  "": 46,
  "name": "Nagoya Institute of Technology",
  "state": "Aichi",
  "latitude": 35.156868,
  "longitude": 136.925232,
  "review_rating": 4.01,
  "difficulty_rank": "B"
},
{
  "_id": {
    "$oid": "65badb61301b15f1e5c0c723"
  },
  "": 47,
  "name": "Toyohashi University of Technology",
  "state": "Aichi",
  "latitude": 34.70142,
  "longitude": 137.408173,
  "review_rating": 3.87,
  "difficulty_rank": "C"
},
{
  "_id": {
    "$oid": "65badb61301b15f1e5c0c724"
  },
  "": 48,
  "name": "Mie University",
  "state": "Mie",
  "latitude": 34.745785,
  "longitude": 136.523224,
  "review_rating": 3.94,
  "difficulty_rank": "C"
},
{
  "_id": {
    "$oid": "65badb61301b15f1e5c0c725"
  },
  "": 49,
  "name": "Shiga University",
  "state": "Shiga",
  "latitude": 35.278313,
  "longitude": 136.247208,
  "review_rating": 3.83,
  "difficulty_rank": "C"
},
{
  "_id": {
    "$oid": "65badb61301b15f1e5c0c726"
  },
  "": 50,
  "name": "Shiga University of Medical Science",
  "state": "Shiga",
  "latitude": 34.974438,
  "longitude": 135.946915,
  "review_rating": 3.88,
  "difficulty_rank": "A"
},
{
  "_id": {
    "$oid": "65badb61301b15f1e5c0c727"
  },
  "": 51,
  "name": "Kyoto University",
  "state": "Kyoto",
  "latitude": 35.026962,
  "longitude": 135.781967,
  "review_rating": 4.2,
  "difficulty_rank": "S"
},
{
  "_id": {
    "$oid": "65badb61301b15f1e5c0c728"
  },
  "": 52,
  "name": "Kyoto University of Education",
  "state": "Kyoto",
  "latitude": 34.951603,
  "longitude": 135.773636,
  "review_rating": 3.99,
  "difficulty_rank": "C"
},
{
  "_id": {
    "$oid": "65badb61301b15f1e5c0c729"
  },
  "": 53,
  "name": "Kyoto Institute of Technology",
  "state": "Kyoto",
  "latitude": 35.049767,
  "longitude": 135.78334,
  "review_rating": 4.04,
  "difficulty_rank": "B"
},
{
  "_id": {
    "$oid": "65badb61301b15f1e5c0c72a"
  },
  "": 54,
  "name": "Osaka University",
  "state": "Osaka",
  "latitude": 34.819496,
  "longitude": 135.521164,
  "review_rating": 4.12,
  "difficulty_rank": "A"
},
{
  "_id": {
    "$oid": "65badb61301b15f1e5c0c72b"
  },
  "": 55,
  "name": "Osaka Kyoiku University",
  "state": "Osaka",
  "latitude": 34.552101,
  "longitude": 135.64679,
  "review_rating": 3.99,
  "difficulty_rank": "C"
},
{
  "_id": {
    "$oid": "65badb61301b15f1e5c0c72c"
  },
  "": 56,
  "name": "Hyogo University of Teacher Education",
  "state": "Hyogo",
  "latitude": 34.912304,
  "longitude": 135.016373,
  "review_rating": 3.83,
  "difficulty_rank": "C"
},
{
  "_id": {
    "$oid": "65badb61301b15f1e5c0c72d"
  },
  "": 57,
  "name": "Kobe University",
  "state": "Hyogo",
  "latitude": 34.726303,
  "longitude": 135.23613,
  "review_rating": 3.99,
  "difficulty_rank": "A"
},
{
  "_id": {
    "$oid": "65badb61301b15f1e5c0c72e"
  },
  "": 58,
  "name": "Nara University of Education",
  "state": "Nara",
  "latitude": 34.675354,
  "longitude": 135.847336,
  "review_rating": 3.91,
  "difficulty_rank": "C"
},
{
  "_id": {
    "$oid": "65badb61301b15f1e5c0c72f"
  },
  "": 59,
  "name": "Nara Women’s University",
  "state": "Nara",
  "latitude": 34.688999,
  "longitude": 135.830185,
  "review_rating": 4.06,
  "difficulty_rank": "B"
},
{
  "_id": {
    "$oid": "65badb61301b15f1e5c0c730"
  },
  "": 60,
  "name": "Wakayama University",
  "state": "Wakayama",
  "latitude": 34.266689,
  "longitude": 135.151962,
  "review_rating": 3.86,
  "difficulty_rank": "C"
},
{
  "_id": {
    "$oid": "65badb61301b15f1e5c0c731"
  },
  "": 61,
  "name": "Tottori University",
  "state": "Tottori",
  "latitude": 35.515392,
  "longitude": 134.17305,
  "review_rating": 3.83,
  "difficulty_rank": "C"
},
{
  "_id": {
    "$oid": "65badb61301b15f1e5c0c732"
  },
  "": 62,
  "name": "Shimane University",
  "state": "Shimane",
  "latitude": 35.486992,
  "longitude": 133.068192,
  "review_rating": 3.84,
  "difficulty_rank": "D"
},
{
  "_id": {
    "$oid": "65badb61301b15f1e5c0c733"
  },
  "": 63,
  "name": "Okayama University",
  "state": "Okayama",
  "latitude": 34.686493,
  "longitude": 133.917404,
  "review_rating": 4.02,
  "difficulty_rank": "C"
},
{
  "_id": {
    "$oid": "65badb61301b15f1e5c0c734"
  },
  "": 64,
  "name": "Hiroshima University",
  "state": "Hiroshima",
  "latitude": 34.400768,
  "longitude": 132.713654,
  "review_rating": 4.04,
  "difficulty_rank": "B"
},
{
  "_id": {
    "$oid": "65badb61301b15f1e5c0c735"
  },
  "": 65,
  "name": "Yamaguchi University",
  "state": "Yamaguchi",
  "latitude": 34.147755,
  "longitude": 131.467514,
  "review_rating": 3.83,
  "difficulty_rank": "C"
},
{
  "_id": {
    "$oid": "65badb61301b15f1e5c0c736"
  },
  "": 66,
  "name": "Tokushima University",
  "state": "Tokushima",
  "latitude": 34.069912,
  "longitude": 134.55983,
  "review_rating": 3.81,
  "difficulty_rank": "C"
},
{
  "_id": {
    "$oid": "65badb61301b15f1e5c0c737"
  },
  "": 67,
  "name": "Naruto University of Education",
  "state": "Tokushima",
  "latitude": 34.203056,
  "longitude": 134.605515,
  "review_rating": 4.16,
  "difficulty_rank": "C"
},
{
  "_id": {
    "$oid": "65badb61301b15f1e5c0c738"
  },
  "": 68,
  "name": "Kagawa University",
  "state": "Kagawa",
  "latitude": 34.343601,
  "longitude": 134.038727,
  "review_rating": 3.89,
  "difficulty_rank": "C"
},
{
  "_id": {
    "$oid": "65badb61301b15f1e5c0c739"
  },
  "": 69,
  "name": "Ehime University",
  "state": "Ehime",
  "latitude": 33.852291,
  "longitude": 132.773804,
  "review_rating": 3.93,
  "difficulty_rank": "D"
},
{
  "_id": {
    "$oid": "65badb61301b15f1e5c0c73a"
  },
  "": 70,
  "name": "Kochi University",
  "state": "Kochi",
  "latitude": 33.550621,
  "longitude": 133.488892,
  "review_rating": 3.98,
  "difficulty_rank": "D"
},
{
  "_id": {
    "$oid": "65badb61301b15f1e5c0c73b"
  },
  "": 71,
  "name": "University of Teacher Education Fukuoka",
  "state": "Fukuoka",
  "latitude": 33.812565,
  "longitude": 130.593628,
  "review_rating": 3.86,
  "difficulty_rank": "C"
},
{
  "_id": {
    "$oid": "65badb61301b15f1e5c0c73c"
  },
  "": 72,
  "name": "Kyushu University",
  "state": "Fukuoka",
  "latitude": 33.597153,
  "longitude": 130.223312,
  "review_rating": 4.04,
  "difficulty_rank": "A"
},
{
  "_id": {
    "$oid": "65badb61301b15f1e5c0c73d"
  },
  "": 73,
  "name": "Kyushu Institute of Technology",
  "state": "Fukuoka",
  "latitude": 33.891369,
  "longitude": 130.838516,
  "review_rating": 3.83,
  "difficulty_rank": "C"
},
{
  "_id": {
    "$oid": "65badb61301b15f1e5c0c73e"
  },
  "": 74,
  "name": "Saga University",
  "state": "Saga",
  "latitude": 33.224899,
  "longitude": 130.288223,
  "review_rating": 3.82,
  "difficulty_rank": "C"
},
{
  "_id": {
    "$oid": "65badb61301b15f1e5c0c73f"
  },
  "": 75,
  "name": "Nagasaki University",
  "state": "Nagasaki",
  "latitude": 32.785553,
  "longitude": 129.862564,
  "review_rating": 3.88,
  "difficulty_rank": "C"
},
{
  "_id": {
    "$oid": "65badb61301b15f1e5c0c740"
  },
  "": 76,
  "name": "Kumamoto University",
  "state": "Kumamoto",
  "latitude": 32.81321,
  "longitude": 130.727722,
  "review_rating": 3.93,
  "difficulty_rank": "C"
},
{
  "_id": {
    "$oid": "65badb61301b15f1e5c0c741"
  },
  "": 77,
  "name": "Oita University",
  "state": "Oita",
  "latitude": 33.174316,
  "longitude": 131.612869,
  "review_rating": 3.89,
  "difficulty_rank": "C"
},
{
  "_id": {
    "$oid": "65badb61301b15f1e5c0c742"
  },
  "": 78,
  "name": "University of Miyazaki",
  "state": "Miyazaki",
  "latitude": 31.828053,
  "longitude": 131.414993,
  "review_rating": 3.92,
  "difficulty_rank": "C"
},
{
  "_id": {
    "$oid": "65badb61301b15f1e5c0c743"
  },
  "": 79,
  "name": "Kagoshima University",
  "state": "Kagoshima",
  "latitude": 31.572577,
  "longitude": 130.546463,
  "review_rating": 4.02,
  "difficulty_rank": "D"
},
{
  "_id": {
    "$oid": "65badb61301b15f1e5c0c744"
  },
  "": 80,
  "name": "National Institute of Fitness And Sports In Kanoya",
  "state": "Kagoshima",
  "latitude": 31.395185,
  "longitude": 130.78717,
  "review_rating": 4.05,
  "difficulty_rank": "D"
},
{
  "_id": {
    "$oid": "65badb61301b15f1e5c0c745"
  },
  "": 81,
  "name": "University of The Ryukyus",
  "state": "Okinawa",
  "latitude": 26.24585,
  "longitude": 127.758453,
  "review_rating": 3.91,
  "difficulty_rank": "D"
},
{
  "_id": {
    "$oid": "65badb61301b15f1e5c0c746"
  },
  "": 82,
  "name": "National Graduate Institute For Policy Studies",
  "state": "Tokyo",
  "latitude": 35.664024,
  "longitude": 139.726776,
  "review_rating": 5
},
{
  "_id": {
    "$oid": "65badb61301b15f1e5c0c747"
  },
  "": 83,
  "name": "The Graduate University for Advanced Studies, SOKENDAI",
  "state": "Kanagawa",
  "latitude": 35.272079,
  "longitude": 139.586166,
  "review_rating": 4.58
},
{
  "_id": {
    "$oid": "65badb61301b15f1e5c0c748"
  },
  "": 84,
  "name": "Japan Advanced Institute of Science And Technology",
  "state": "Ishikawa",
  "latitude": 36.442867,
  "longitude": 136.59256,
  "review_rating": 3.58
},
{
  "_id": {
    "$oid": "65badb61301b15f1e5c0c749"
  },
  "": 85,
  "name": "Nara Institute of Science And Technology",
  "state": "Nara",
  "latitude": 34.735664,
  "longitude": 135.731369,
  "review_rating": 4.12
},
{
  "_id": {
    "$oid": "65badb61301b15f1e5c0c74a"
  },
  "": 86,
  "name": "Sapporo Medical University",
  "state": "Hokaido",
  "latitude": 43.056129,
  "longitude": 141.331436,
  "review_rating": 4.09,
  "difficulty_rank": "B"
},
{
  "_id": {
    "$oid": "65badb61301b15f1e5c0c74b"
  },
  "": 87,
  "name": "Future University Hakodate",
  "state": "Hokaido",
  "latitude": 41.841949,
  "longitude": 140.766815,
  "review_rating": 4.01,
  "difficulty_rank": "E"
},
{
  "_id": {
    "$oid": "65badb61301b15f1e5c0c74c"
  },
  "": 88,
  "name": "Kushiro Public University of Economics",
  "state": "Hokaido",
  "latitude": 43.018459,
  "longitude": 144.393768,
  "review_rating": 3.47,
  "difficulty_rank": "E"
},
{
  "_id": {
    "$oid": "65badb61301b15f1e5c0c74d"
  },
  "": 89,
  "name": "Nayoro City University",
  "state": "Hokaido",
  "latitude": 44.364567,
  "longitude": 142.458801,
  "review_rating": 4.05,
  "difficulty_rank": "C"
},
{
  "_id": {
    "$oid": "65badb61301b15f1e5c0c74e"
  },
  "": 90,
  "name": "SAPPORO CITY UNIVERSITY",
  "state": "Hokaido",
  "latitude": 42.944695,
  "longitude": 141.341125,
  "review_rating": 3.94,
  "difficulty_rank": "C"
},
{
  "_id": {
    "$oid": "65badb61301b15f1e5c0c74f"
  },
  "": 91,
  "name": "Chitose Institute of Science And Technology",
  "state": "Hokaido",
  "latitude": 42.787975,
  "longitude": 141.699905,
  "review_rating": 3.89,
  "difficulty_rank": "D"
},
{
  "_id": {
    "$oid": "65badb61301b15f1e5c0c750"
  },
  "": 92,
  "name": "Aomori Public University",
  "state": "Aomori",
  "latitude": 40.754196,
  "longitude": 140.769241,
  "review_rating": 3.8,
  "difficulty_rank": "E"
},
{
  "_id": {
    "$oid": "65badb61301b15f1e5c0c751"
  },
  "": 93,
  "name": "Aomori University of Health And Welfare",
  "state": "Aomori",
  "latitude": 40.814526,
  "longitude": 140.792755,
  "review_rating": 4.26,
  "difficulty_rank": "D"
},
{
  "_id": {
    "$oid": "65badb61301b15f1e5c0c752"
  },
  "": 94,
  "name": "Iwate Prefectural University",
  "state": "Iwate",
  "latitude": 39.799114,
  "longitude": 141.131531,
  "review_rating": 3.95,
  "difficulty_rank": "C"
},
{
  "_id": {
    "$oid": "65badb61301b15f1e5c0c753"
  },
  "": 95,
  "name": "Miyagi Akita Prefectural University",
  "state": "Miyagi",
  "latitude": 38.3489,
  "longitude": 140.840469,
  "review_rating": 3.8,
  "difficulty_rank": "D"
},
{
  "_id": {
    "$oid": "65badb61301b15f1e5c0c754"
  },
  "": 96,
  "name": "Akita Prefectural University",
  "state": "Akita",
  "latitude": 39.804924,
  "longitude": 140.047287,
  "review_rating": 3.93,
  "difficulty_rank": "E"
},
{
  "_id": {
    "$oid": "65badb61301b15f1e5c0c755"
  },
  "": 97,
  "name": "Akita International University",
  "state": "Akita",
  "latitude": 39.62706,
  "longitude": 140.181107,
  "review_rating": 4.18,
  "difficulty_rank": "S"
},
{
  "_id": {
    "$oid": "65badb61301b15f1e5c0c756"
  },
  "": 98,
  "name": "Akita University of Art",
  "state": "Akita",
  "latitude": 39.685692,
  "longitude": 140.090866,
  "review_rating": 3.75,
  "difficulty_rank": "D"
},
{
  "_id": {
    "$oid": "65badb61301b15f1e5c0c757"
  },
  "": 99,
  "name": "Yamagata Prefectural University of Health Sciences",
  "state": "Yamagata",
  "latitude": 38.296722,
  "longitude": 140.346436,
  "review_rating": 4.03
},
{
  "_id": {
    "$oid": "65badb61301b15f1e5c0c758"
  },
  "": 100,
  "name": "Yamagata Prefectural Yonezawa University of Nutrition Sciences",
  "state": "Yamagata",
  "latitude": 37.891335,
  "longitude": 140.124496,
  "review_rating": 3.9,
  "difficulty_rank": "D"
},
{
  "_id": {
    "$oid": "65badb61301b15f1e5c0c759"
  },
  "": 101,
  "name": "Fukushima Medical University",
  "state": "Fukushima",
  "latitude": 37.689926,
  "longitude": 140.471603,
  "review_rating": 3.96,
  "difficulty_rank": "C"
},
{
  "_id": {
    "$oid": "65badb61301b15f1e5c0c75a"
  },
  "": 102,
  "name": "The University of Aizu",
  "state": "Fukushima",
  "latitude": 37.523617,
  "longitude": 139.937897,
  "review_rating": 4.06,
  "difficulty_rank": "E"
},
{
  "_id": {
    "$oid": "65badb61301b15f1e5c0c75b"
  },
  "": 103,
  "name": "Ibaraki Prefectural University of Health Sciences",
  "state": "Ibaraki",
  "latitude": 36.026962,
  "longitude": 140.210724,
  "review_rating": 4.09,
  "difficulty_rank": "C"
},
{
  "_id": {
    "$oid": "65badb61301b15f1e5c0c75c"
  },
  "": 104,
  "name": "Takasaki City University of Economics",
  "state": "Gunma",
  "latitude": 36.34544,
  "longitude": 138.977264,
  "review_rating": 3.67,
  "difficulty_rank": "C"
},
{
  "_id": {
    "$oid": "65badb61301b15f1e5c0c75d"
  },
  "": 105,
  "name": "Maebashi Institute of Technology",
  "state": "Gunma",
  "latitude": 36.363926,
  "longitude": 139.080566,
  "review_rating": 3.69,
  "difficulty_rank": "E"
},
{
  "_id": {
    "$oid": "65badb61301b15f1e5c0c75e"
  },
  "": 106,
  "name": "Gunma Prefectural Women’s University",
  "state": "Gunma",
  "latitude": 36.29763,
  "longitude": 139.112442,
  "review_rating": 4.17,
  "difficulty_rank": "C"
},
{
  "_id": {
    "$oid": "65badb61301b15f1e5c0c75f"
  },
  "": 107,
  "name": "Gunma Prefectural College of Health Sciences",
  "state": "Gunma",
  "latitude": 36.403595,
  "longitude": 139.095078,
  "review_rating": 4.23,
  "difficulty_rank": "C"
},
{
  "_id": {
    "$oid": "65badb61301b15f1e5c0c760"
  },
  "": 108,
  "name": "Saitama Prefectural University",
  "state": "Saitama",
  "latitude": 35.929996,
  "longitude": 139.756241,
  "review_rating": 4.13,
  "difficulty_rank": "C"
},
{
  "_id": {
    "$oid": "65badb61301b15f1e5c0c761"
  },
  "": 109,
  "name": "Chiba Prefectural University of Health Sciences",
  "state": "Chiba",
  "latitude": 35.651989,
  "longitude": 140.052032,
  "review_rating": 3.66
},
{
  "_id": {
    "$oid": "65badb61301b15f1e5c0c762"
  },
  "": 110,
  "name": "Tokyo Metropolitan University",
  "state": "Tokyo",
  "latitude": 35.616882,
  "longitude": 139.376968,
  "review_rating": 4.06,
  "difficulty_rank": "B"
},
{
  "_id": {
    "$oid": "65badb61301b15f1e5c0c763"
  },
  "": 111,
  "name": "Advanced Institute of Industrial Technology",
  "state": "Tokyo",
  "latitude": 35.605923,
  "longitude": 139.747803,
  "review_rating": 3.65
},
{
  "_id": {
    "$oid": "65badb61301b15f1e5c0c764"
  },
  "": 112,
  "name": "Yokohama City University",
  "state": "Kanagawa",
  "latitude": 35.333984,
  "longitude": 139.617783,
  "review_rating": 3.87,
  "difficulty_rank": "A"
},
{
  "_id": {
    "$oid": "65badb61301b15f1e5c0c765"
  },
  "": 113,
  "name": "Kanagawa University of Human Services",
  "state": "Kanagawa",
  "latitude": 35.273666,
  "longitude": 139.68071,
  "review_rating": 4.14,
  "difficulty_rank": "C"
},
{
  "_id": {
    "$oid": "65badb61301b15f1e5c0c766"
  },
  "": 114,
  "name": "Niigata College of Nursing",
  "state": "Niigata",
  "latitude": 37.10453,
  "longitude": 138.269821,
  "review_rating": 4.05,
  "difficulty_rank": "C"
},
{
  "_id": {
    "$oid": "65badb61301b15f1e5c0c767"
  },
  "": 115,
  "name": "University of Niigata Prefecture",
  "state": "Niigata",
  "latitude": 37.923443,
  "longitude": 139.127274,
  "review_rating": 4.04,
  "difficulty_rank": "C"
},
{
  "_id": {
    "$oid": "65badb61301b15f1e5c0c768"
  },
  "": 116,
  "name": "Nagaoka Institute of Design",
  "state": "Niigata",
  "latitude": 37.467224,
  "longitude": 138.830521,
  "review_rating": 4.1,
  "difficulty_rank": "C"
},
{
  "_id": {
    "$oid": "65badb61301b15f1e5c0c769"
  },
  "": 117,
  "name": "SANJO CITY UNIVERSITY",
  "state": "Niigata",
  "latitude": 37.643047,
  "longitude": 138.932938,
  "difficulty_rank": "E"
},
{
  "_id": {
    "$oid": "65badb61301b15f1e5c0c76a"
  },
  "": 118,
  "name": "Toyama Prefectural University",
  "state": "Toyama",
  "latitude": 36.707066,
  "longitude": 137.097382,
  "review_rating": 3.72,
  "difficulty_rank": "E"
},
{
  "_id": {
    "$oid": "65badb61301b15f1e5c0c76b"
  },
  "": 119,
  "name": "Komatsu University",
  "state": "Ishikawa",
  "latitude": 36.354458,
  "longitude": 136.416809,
  "review_rating": 3.55,
  "difficulty_rank": "C"
},
{
  "_id": {
    "$oid": "65badb61301b15f1e5c0c76c"
  },
  "": 120,
  "name": "Ishikawa Prefectural University",
  "state": "Ishikawa",
  "latitude": 36.506672,
  "longitude": 136.597122,
  "review_rating": 3.78,
  "difficulty_rank": "D"
},
{
  "_id": {
    "$oid": "65badb61301b15f1e5c0c76d"
  },
  "": 121,
  "name": "Kanazawa College of Art",
  "state": "Ishikawa",
  "latitude": 36.555538,
  "longitude": 136.677475,
  "review_rating": 4,
  "difficulty_rank": "C"
},
{
  "_id": {
    "$oid": "65badb61301b15f1e5c0c76e"
  },
  "": 122,
  "name": "Ishikawa Prefectural Nursing University",
  "state": "Ishikawa",
  "latitude": 36.780563,
  "longitude": 136.73378,
  "review_rating": 3.82,
  "difficulty_rank": "C"
},
{
  "_id": {
    "$oid": "65badb61301b15f1e5c0c76f"
  },
  "": 123,
  "name": "Fukui Prefectural University",
  "state": "Fukui",
  "latitude": 36.109333,
  "longitude": 136.277328,
  "review_rating": 3.66,
  "difficulty_rank": "D"
},
{
  "_id": {
    "$oid": "65badb61301b15f1e5c0c770"
  },
  "": 124,
  "name": "Tsuruga Nursing University",
  "state": "Fukui",
  "latitude": 35.641552,
  "longitude": 136.043198,
  "review_rating": 3.89,
  "difficulty_rank": "C"
},
{
  "_id": {
    "$oid": "65badb61301b15f1e5c0c771"
  },
  "": 125,
  "name": "Tsuru University",
  "state": "Yamanashi",
  "latitude": 35.539513,
  "longitude": 138.897522,
  "review_rating": 3.83,
  "difficulty_rank": "B"
},
{
  "_id": {
    "$oid": "65badb61301b15f1e5c0c772"
  },
  "": 126,
  "name": "Yamanashi Prefectural University",
  "state": "Yamanashi",
  "latitude": 35.663467,
  "longitude": 138.55629,
  "review_rating": 3.8,
  "difficulty_rank": "C"
},
{
  "_id": {
    "$oid": "65badb61301b15f1e5c0c773"
  },
  "": 127,
  "name": "Suwa University of Science",
  "state": "Nagano",
  "latitude": 36.009003,
  "longitude": 138.184799,
  "review_rating": 3.85,
  "difficulty_rank": "D"
},
{
  "_id": {
    "$oid": "65badb61301b15f1e5c0c774"
  },
  "": 128,
  "name": "The University of Nagano",
  "state": "Nagano",
  "latitude": 36.665031,
  "longitude": 138.200287,
  "review_rating": 3.82,
  "difficulty_rank": "C"
},
{
  "_id": {
    "$oid": "65badb61301b15f1e5c0c775"
  },
  "": 129,
  "name": "Nagano College of Nursing",
  "state": "Nagano",
  "latitude": 35.745735,
  "longitude": 137.933121,
  "review_rating": 3.87,
  "difficulty_rank": "D"
},
{
  "_id": {
    "$oid": "65badb61301b15f1e5c0c776"
  },
  "": 130,
  "name": "Nagano University",
  "state": "Nagano",
  "latitude": 36.372154,
  "longitude": 138.223236,
  "review_rating": 3.57,
  "difficulty_rank": "C"
},
{
  "_id": {
    "$oid": "65badb61301b15f1e5c0c777"
  },
  "": 131,
  "name": "Gifu Pharmaceutical University",
  "state": "Gifu",
  "latitude": 35.467346,
  "longitude": 136.733551,
  "review_rating": 3.83,
  "difficulty_rank": "B"
},
{
  "_id": {
    "$oid": "65badb61301b15f1e5c0c778"
  },
  "": 132,
  "name": "Gifu College of Nursing",
  "state": "Gifu",
  "latitude": 35.306019,
  "longitude": 136.685806,
  "review_rating": 3.79,
  "difficulty_rank": "C"
},
{
  "_id": {
    "$oid": "65badb61301b15f1e5c0c779"
  },
  "": 133,
  "name": "Institute of Advanced Media Arts and Sciences",
  "state": "Gifu",
  "latitude": 35.368057,
  "longitude": 136.638962,
  "review_rating": 4
},
{
  "_id": {
    "$oid": "65badb61301b15f1e5c0c77a"
  },
  "": 134,
  "name": "Shizuoka Professional University of Agriculture",
  "state": "Shizuoka",
  "latitude": 34.729942,
  "longitude": 137.843948,
  "review_rating": 3,
  "difficulty_rank": "C"
},
{
  "_id": {
    "$oid": "65badb61301b15f1e5c0c77b"
  },
  "": 135,
  "name": "University of Shizuoka",
  "state": "Shizuoka",
  "latitude": 34.995667,
  "longitude": 138.444092,
  "review_rating": 3.96,
  "difficulty_rank": "C"
},
{
  "_id": {
    "$oid": "65badb61301b15f1e5c0c77c"
  },
  "": 136,
  "name": "Shizuoka University of Art And Culture",
  "state": "Shizuoka",
  "latitude": 34.713261,
  "longitude": 137.737991,
  "review_rating": 4.15,
  "difficulty_rank": "C"
},
{
  "_id": {
    "$oid": "65badb61301b15f1e5c0c77d"
  },
  "": 137,
  "name": "Shizuoka Graduate University of Public Health",
  "state": "Shizuoka",
  "latitude": 35.003246,
  "longitude": 138.386093
},
{
  "_id": {
    "$oid": "65badb61301b15f1e5c0c77e"
  },
  "": 138,
  "name": "Nagoya City University",
  "state": "Aichi",
  "latitude": 35.139385,
  "longitude": 136.935196,
  "review_rating": 3.9,
  "difficulty_rank": "B"
},
{
  "_id": {
    "$oid": "65badb61301b15f1e5c0c77f"
  },
  "": 139,
  "name": "Aichi University of The Arts",
  "state": "Aichi",
  "latitude": 35.165203,
  "longitude": 137.05867,
  "review_rating": 3.93,
  "difficulty_rank": "D"
},
{
  "_id": {
    "$oid": "65badb61301b15f1e5c0c780"
  },
  "": 140,
  "name": "Aichi Prefectural University",
  "state": "Aichi",
  "latitude": 35.181957,
  "longitude": 137.087143,
  "review_rating": 3.99,
  "difficulty_rank": "C"
},
{
  "_id": {
    "$oid": "65badb61301b15f1e5c0c781"
  },
  "": 141,
  "name": "Mie Prefectural College of Nursing",
  "state": "Mie",
  "latitude": 34.759846,
  "longitude": 136.488571,
  "review_rating": 3.92,
  "difficulty_rank": "C"
},
{
  "_id": {
    "$oid": "65badb61301b15f1e5c0c782"
  },
  "": 142,
  "name": "The University of Shiga Prefecture",
  "state": "Shiga",
  "latitude": 35.259586,
  "longitude": 136.218903,
  "review_rating": 3.96,
  "difficulty_rank": "C"
},
{
  "_id": {
    "$oid": "65badb61301b15f1e5c0c783"
  },
  "": 143,
  "name": "Kyoto City University of Arts",
  "state": "Kyoto",
  "latitude": 34.974239,
  "longitude": 135.664642,
  "review_rating": 4.04,
  "difficulty_rank": "C"
},
{
  "_id": {
    "$oid": "65badb61301b15f1e5c0c784"
  },
  "": 144,
  "name": "Kyoto Prefectural University",
  "state": "Kyoto",
  "latitude": 35.050365,
  "longitude": 135.75975,
  "review_rating": 4.03,
  "difficulty_rank": "B"
},
{
  "_id": {
    "$oid": "65badb61301b15f1e5c0c785"
  },
  "": 145,
  "name": "Kyoto Prefectural University of Medicine",
  "state": "Kyoto",
  "latitude": 35.029552,
  "longitude": 135.756714,
  "review_rating": 4,
  "difficulty_rank": "A"
},
{
  "_id": {
    "$oid": "65badb61301b15f1e5c0c786"
  },
  "": 146,
  "name": "The University of Fukuchiyama",
  "state": "Kyoto",
  "latitude": 35.284485,
  "longitude": 135.127457,
  "review_rating": 3.46,
  "difficulty_rank": "D"
},
{
  "_id": {
    "$oid": "65badb61301b15f1e5c0c787"
  },
  "": 147,
  "name": "Osaka Metropolitan University",
  "state": "Osaka",
  "latitude": 34.646618,
  "longitude": 135.510162,
  "review_rating": 4.03
},
{
  "_id": {
    "$oid": "65badb61301b15f1e5c0c788"
  },
  "": 148,
  "name": "Osaka City University",
  "state": "Osaka",
  "latitude": 34.591904,
  "longitude": 135.505142,
  "review_rating": 3.95
},
{
  "_id": {
    "$oid": "65badb61301b15f1e5c0c789"
  },
  "": 149,
  "name": "Osaka Prefecture University",
  "state": "Osaka",
  "latitude": 34.547966,
  "longitude": 135.505569,
  "review_rating": 3.89
},
{
  "_id": {
    "$oid": "65badb61301b15f1e5c0c78a"
  },
  "": 150,
  "name": "Kobe City University of Foreign Studies",
  "state": "Hyogo",
  "latitude": 34.679649,
  "longitude": 135.059891,
  "review_rating": 4.03,
  "difficulty_rank": "B"
},
{
  "_id": {
    "$oid": "65badb61301b15f1e5c0c78b"
  },
  "": 151,
  "name": "Kobe City College of Nursing",
  "state": "Hyogo",
  "latitude": 34.687214,
  "longitude": 135.053818,
  "review_rating": 4.15,
  "difficulty_rank": "C"
},
{
  "_id": {
    "$oid": "65badb61301b15f1e5c0c78c"
  },
  "": 152,
  "name": "University of Hyogo",
  "state": "Hyogo",
  "latitude": 34.678242,
  "longitude": 135.051086,
  "review_rating": 3.72,
  "difficulty_rank": "C"
},
{
  "_id": {
    "$oid": "65badb61301b15f1e5c0c78d"
  },
  "": 153,
  "name": "Professional College of Arts and Tourism",
  "state": "Hyogo",
  "latitude": 35.539219,
  "longitude": 134.816208,
  "review_rating": 3,
  "difficulty_rank": "D"
},
{
  "_id": {
    "$oid": "65badb61301b15f1e5c0c78e"
  },
  "": 154,
  "name": "Nara Medical University",
  "state": "Nara",
  "latitude": 34.503887,
  "longitude": 135.792542,
  "review_rating": 3.63,
  "difficulty_rank": "A"
},
{
  "_id": {
    "$oid": "65badb61301b15f1e5c0c78f"
  },
  "": 155,
  "name": "Nara Prefectural University",
  "state": "Nara",
  "latitude": 34.687683,
  "longitude": 135.82103,
  "review_rating": 3.54,
  "difficulty_rank": "C"
},
{
  "_id": {
    "$oid": "65badb61301b15f1e5c0c790"
  },
  "": 156,
  "name": "Wakayama Medical University",
  "state": "Wakayama",
  "latitude": 34.187664,
  "longitude": 135.181717,
  "review_rating": 3.98,
  "difficulty_rank": "B"
},
{
  "_id": {
    "$oid": "65badb61301b15f1e5c0c791"
  },
  "": 157,
  "name": "Tottori University of Environmental Studies",
  "state": "Tottori",
  "latitude": 35.450813,
  "longitude": 134.25531,
  "review_rating": 3.86,
  "difficulty_rank": "D"
},
{
  "_id": {
    "$oid": "65badb61301b15f1e5c0c792"
  },
  "": 158,
  "name": "The University of Shimane",
  "state": "Shimane",
  "latitude": 34.885452,
  "longitude": 132.077423,
  "review_rating": 3.8,
  "difficulty_rank": "C"
},
{
  "_id": {
    "$oid": "65badb61301b15f1e5c0c793"
  },
  "": 159,
  "name": "Okayama Prefectural University",
  "state": "Okayama",
  "latitude": 34.692059,
  "longitude": 133.780289,
  "review_rating": 3.96,
  "difficulty_rank": "C"
},
{
  "_id": {
    "$oid": "65badb61301b15f1e5c0c794"
  },
  "": 160,
  "name": "Niimi University",
  "state": "Okayama",
  "latitude": 34.998795,
  "longitude": 133.439957,
  "review_rating": 4.28,
  "difficulty_rank": "C"
},
{
  "_id": {
    "$oid": "65badb61301b15f1e5c0c795"
  },
  "": 161,
  "name": "Prefectural University of Hiroshima",
  "state": "Hiroshima",
  "latitude": 34.367306,
  "longitude": 132.469666,
  "review_rating": 4,
  "difficulty_rank": "D"
},
{
  "_id": {
    "$oid": "65badb61301b15f1e5c0c796"
  },
  "": 162,
  "name": "Onomichi City University",
  "state": "Hiroshima",
  "latitude": 34.426105,
  "longitude": 133.162537,
  "review_rating": 3.76,
  "difficulty_rank": "C"
},
{
  "_id": {
    "$oid": "65badb61301b15f1e5c0c797"
  },
  "": 163,
  "name": "Hiroshima City University",
  "state": "Hiroshima",
  "latitude": 34.438053,
  "longitude": 132.415192,
  "review_rating": 3.87,
  "difficulty_rank": "C"
},
{
  "_id": {
    "$oid": "65badb61301b15f1e5c0c798"
  },
  "": 164,
  "name": "Fukuyama City University",
  "state": "Hiroshima",
  "latitude": 34.481747,
  "longitude": 133.381149,
  "review_rating": 3.66,
  "difficulty_rank": "C"
},
{
  "_id": {
    "$oid": "65badb61301b15f1e5c0c799"
  },
  "": 165,
  "name": "Eikei University of Hiroshima",
  "state": "Hiroshima",
  "latitude": 34.396297,
  "longitude": 132.468719,
  "review_rating": 4,
  "difficulty_rank": "D"
},
{
  "_id": {
    "$oid": "65badb61301b15f1e5c0c79a"
  },
  "": 166,
  "name": "Shimonoseki City University",
  "state": "Yamaguchi",
  "latitude": 33.987431,
  "longitude": 130.933365,
  "review_rating": 3.62,
  "difficulty_rank": "D"
},
{
  "_id": {
    "$oid": "65badb61301b15f1e5c0c79b"
  },
  "": 167,
  "name": "Yamaguchi Prefectural University",
  "state": "Yamaguchi",
  "latitude": 34.194012,
  "longitude": 131.498642,
  "review_rating": 3.99,
  "difficulty_rank": "C"
},
{
  "_id": {
    "$oid": "65badb61301b15f1e5c0c79c"
  },
  "": 168,
  "name": "Sanyo-Onoda City University",
  "state": "Yamaguchi",
  "latitude": 33.957043,
  "longitude": 131.187805,
  "review_rating": 3.71,
  "difficulty_rank": "D"
},
{
  "_id": {
    "$oid": "65badb61301b15f1e5c0c79d"
  },
  "": 169,
  "name": "Kagawa Prefectural University of Health Sciences",
  "state": "Kagawa",
  "latitude": 34.321964,
  "longitude": 134.158371,
  "review_rating": 4.15,
  "difficulty_rank": "C"
},
{
  "_id": {
    "$oid": "65badb61301b15f1e5c0c79e"
  },
  "": 170,
  "name": "Ehime Prefectural University of Health Sciences",
  "state": "Ehime",
  "latitude": 33.780685,
  "longitude": 132.798233,
  "review_rating": 4.18,
  "difficulty_rank": "C"
},
{
  "_id": {
    "$oid": "65badb61301b15f1e5c0c79f"
  },
  "": 171,
  "name": "University of Kochi",
  "state": "Kochi",
  "latitude": 33.53101,
  "longitude": 133.580902,
  "review_rating": 4.01,
  "difficulty_rank": "C"
},
{
  "_id": {
    "$oid": "65badb61301b15f1e5c0c7a0"
  },
  "": 172,
  "name": "Kochi University of Technology",
  "state": "Kochi",
  "latitude": 33.620975,
  "longitude": 133.719894,
  "review_rating": 4.02,
  "difficulty_rank": "D"
},
{
  "_id": {
    "$oid": "65badb61301b15f1e5c0c7a1"
  },
  "": 173,
  "name": "The University of Kitakyushu",
  "state": "Fukuoka",
  "latitude": 33.843643,
  "longitude": 130.878265,
  "review_rating": 3.83,
  "difficulty_rank": "D"
},
{
  "_id": {
    "$oid": "65badb61301b15f1e5c0c7a2"
  },
  "": 174,
  "name": "Kyushu Dental University",
  "state": "Fukuoka",
  "latitude": 33.871742,
  "longitude": 130.853775,
  "review_rating": 3.82,
  "difficulty_rank": "D"
},
{
  "_id": {
    "$oid": "65badb61301b15f1e5c0c7a3"
  },
  "": 175,
  "name": "Fukuoka Women's University",
  "state": "Fukuoka",
  "latitude": 33.665958,
  "longitude": 130.438522,
  "review_rating": 4.09,
  "difficulty_rank": "C"
},
{
  "_id": {
    "$oid": "65badb61301b15f1e5c0c7a4"
  },
  "": 176,
  "name": "Fukuoka Prefectural University",
  "state": "Fukuoka",
  "latitude": 33.649834,
  "longitude": 130.814484,
  "review_rating": 3.88,
  "difficulty_rank": "C"
},
{
  "_id": {
    "$oid": "65badb61301b15f1e5c0c7a5"
  },
  "": 177,
  "name": "University of Nagasaki",
  "state": "Nagasaki",
  "latitude": 33.186432,
  "longitude": 129.665451,
  "review_rating": 3.74,
  "difficulty_rank": "D"
},
{
  "_id": {
    "$oid": "65badb61301b15f1e5c0c7a6"
  },
  "": 178,
  "name": "Prefectural University of Kumamoto",
  "state": "Kumamoto",
  "latitude": 32.806938,
  "longitude": 130.764236,
  "review_rating": 3.8,
  "difficulty_rank": "C"
},
{
  "_id": {
    "$oid": "65badb61301b15f1e5c0c7a7"
  },
  "": 179,
  "name": "Oita University of Nursing And Health Sciences",
  "state": "Oita",
  "latitude": 33.154671,
  "longitude": 131.557205,
  "review_rating": 3.73
},
{
  "_id": {
    "$oid": "65badb61301b15f1e5c0c7a8"
  },
  "": 180,
  "name": "Miyazaki Municipal University",
  "state": "Miyazaki",
  "latitude": 31.925987,
  "longitude": 131.417236,
  "review_rating": 3.9,
  "difficulty_rank": "D"
},
{
  "_id": {
    "$oid": "65badb61301b15f1e5c0c7a9"
  },
  "": 181,
  "name": "Miyazaki Prefectural Nursing University",
  "state": "Miyazaki",
  "latitude": 31.857765,
  "longitude": 131.41423,
  "review_rating": 4.21,
  "difficulty_rank": "C"
},
{
  "_id": {
    "$oid": "65badb61301b15f1e5c0c7aa"
  },
  "": 182,
  "name": "Meio University",
  "state": "Okinawa",
  "latitude": 26.6168,
  "longitude": 127.969719,
  "review_rating": 3.87,
  "difficulty_rank": "E"
},
{
  "_id": {
    "$oid": "65badb61301b15f1e5c0c7ab"
  },
  "": 183,
  "name": "Okinawa Prefectural University of Arts",
  "state": "Okinawa",
  "latitude": 26.219156,
  "longitude": 127.718552,
  "review_rating": 3.92,
  "difficulty_rank": "D"
},
{
  "_id": {
    "$oid": "65badb61301b15f1e5c0c7ac"
  },
  "": 184,
  "name": "Okinawa Prefectural College of Nursing",
  "state": "Okinawa",
  "latitude": 26.206566,
  "longitude": 127.694443,
  "review_rating": 4.08,
  "difficulty_rank": "D"
},
{
  "_id": {
    "$oid": "65badb61301b15f1e5c0c7ad"
  },
  "": 185,
  "name": "Shunan　University",
  "state": "Yamaguchi",
  "latitude": 34.047821,
  "longitude": 131.84494,
  "review_rating": 3.4,
  "difficulty_rank": "D"
},
{
  "_id": {
    "$oid": "65badb61301b15f1e5c0c7ae"
  },
  "": 186,
  "name": "Kawasaki City College of Nursing",
  "state": "Kanagawa",
  "latitude": 35.536179,
  "longitude": 139.669891,
  "review_rating": 3,
  "difficulty_rank": "C"
},
{
  "_id": {
    "$oid": "65badb61301b15f1e5c0c7af"
  },
  "": 187,
  "name": "Sapporo　University",
  "state": "Hokaido",
  "latitude": 43.010437,
  "longitude": 141.387207,
  "review_rating": 3.79,
  "difficulty_rank": "F"
},
{
  "_id": {
    "$oid": "65badb61301b15f1e5c0c7b0"
  },
  "": 188,
  "name": "Sapporo　Gakuin　University",
  "state": "Hokaido",
  "latitude": 43.067093,
  "longitude": 141.492981,
  "review_rating": 3.85,
  "difficulty_rank": "F"
},
{
  "_id": {
    "$oid": "65badb61301b15f1e5c0c7b1"
  },
  "": 189,
  "name": "Hakodate　University",
  "state": "Hokaido",
  "latitude": 41.78883,
  "longitude": 140.806671,
  "review_rating": 3.55,
  "difficulty_rank": "F"
},
{
  "_id": {
    "$oid": "65badb61301b15f1e5c0c7b2"
  },
  "": 190,
  "name": "Fuji　Women’s　University",
  "state": "Hokaido",
  "latitude": 43.079823,
  "longitude": 141.350479,
  "review_rating": 3.98,
  "difficulty_rank": "F"
},
{
  "_id": {
    "$oid": "65badb61301b15f1e5c0c7b3"
  },
  "": 191,
  "name": "Hokusei　Gakuen　University",
  "state": "Hokaido",
  "latitude": 43.023792,
  "longitude": 141.448715,
  "review_rating": 3.9,
  "difficulty_rank": "D"
},
{
  "_id": {
    "$oid": "65badb61301b15f1e5c0c7b4"
  },
  "": 192,
  "name": "Hokkai　-　Gakuen　University",
  "state": "Hokaido",
  "latitude": 43.046837,
  "longitude": 141.369034,
  "review_rating": 3.81,
  "difficulty_rank": "E"
},
{
  "_id": {
    "$oid": "65badb61301b15f1e5c0c7b5"
  },
  "": 193,
  "name": "Hokkaido　University　of　Science",
  "state": "Hokaido",
  "latitude": 43.134399,
  "longitude": 141.246552,
  "review_rating": 3.77,
  "difficulty_rank": "E"
},
{
  "_id": {
    "$oid": "65badb61301b15f1e5c0c7b6"
  },
  "": 194,
  "name": "Rakuno　Gakuen　University",
  "state": "Hokaido",
  "latitude": 43.071857,
  "longitude": 141.508728,
  "review_rating": 3.77,
  "difficulty_rank": "E"
},
{
  "_id": {
    "$oid": "65badb61301b15f1e5c0c7b7"
  },
  "": 195,
  "name": "AsahikawaUniversity",
  "state": "Hokaido",
  "latitude": 43.817345,
  "longitude": 142.445099,
  "review_rating": 3.74
},
{
  "_id": {
    "$oid": "65badb61301b15f1e5c0c7b8"
  },
  "": 196,
  "name": "Health　Sciences　University　of　Hokkaido",
  "state": "Hokaido",
  "latitude": 43.246895,
  "longitude": 141.561859,
  "review_rating": 3.89,
  "difficulty_rank": "E"
},
{
  "_id": {
    "$oid": "65badb61301b15f1e5c0c7b9"
  },
  "": 197,
  "name": "Hokkai　School　of　Commerce",
  "state": "Hokaido",
  "latitude": 43.047962,
  "longitude": 141.370026,
  "review_rating": 3.61,
  "difficulty_rank": "F"
},
{
  "_id": {
    "$oid": "65badb61301b15f1e5c0c7ba"
  },
  "": 198,
  "name": "Seisa　Dohto　University",
  "state": "Hokaido",
  "latitude": 42.980564,
  "longitude": 141.538483,
  "review_rating": 3.87,
  "difficulty_rank": "F"
},
{
  "_id": {
    "$oid": "65badb61301b15f1e5c0c7bb"
  },
  "": 199,
  "name": "Hokkaido　Information　University",
  "state": "Hokaido",
  "latitude": 43.078266,
  "longitude": 141.537704,
  "review_rating": 3.83,
  "difficulty_rank": "E"
},
{
  "_id": {
    "$oid": "65badb61301b15f1e5c0c7bc"
  },
  "": 200,
  "name": "Sapporo　International　University",
  "state": "Hokaido",
  "latitude": 43.002434,
  "longitude": 141.424561,
  "review_rating": 3.85,
  "difficulty_rank": "F"
},
{
  "_id": {
    "$oid": "65badb61301b15f1e5c0c7bd"
  },
  "": 201,
  "name": "Hokusho　University",
  "state": "Hokaido",
  "latitude": 43.063904,
  "longitude": 141.489609,
  "review_rating": 3.96,
  "difficulty_rank": "F"
},
{
  "_id": {
    "$oid": "65badb61301b15f1e5c0c7be"
  },
  "": 202,
  "name": "Hokuyo University",
  "state": "Hokaido",
  "latitude": 42.600338,
  "longitude": 141.464294,
  "review_rating": 3.97,
  "difficulty_rank": "F"
},
{
  "_id": {
    "$oid": "65badb61301b15f1e5c0c7bf"
  },
  "": 203,
  "name": "Japanese　Red　Cross　Hokkaido　College　of　Nursing",
  "state": "Hokaido",
  "latitude": 43.830696,
  "longitude": 143.908508,
  "review_rating": 3.94,
  "difficulty_rank": "F"
},
{
  "_id": {
    "$oid": "65badb61301b15f1e5c0c7c0"
  },
  "": 204,
  "name": "Hokkaido　Bunkyo　University",
  "state": "Hokaido",
  "latitude": 42.890831,
  "longitude": 141.591461,
  "review_rating": 3.62,
  "difficulty_rank": "F"
},
{
  "_id": {
    "$oid": "65badb61301b15f1e5c0c7c1"
  },
  "": 205,
  "name": "Tenshi　College",
  "state": "Hokaido",
  "latitude": 43.077644,
  "longitude": 141.357895,
  "review_rating": 4.02,
  "difficulty_rank": "D"
},
{
  "_id": {
    "$oid": "65badb61301b15f1e5c0c7c2"
  },
  "": 206,
  "name": "Ikueikan　University",
  "state": "Hokaido",
  "latitude": 45.383553,
  "longitude": 141.718567,
  "review_rating": 4.43,
  "difficulty_rank": "F"
},
{
  "_id": {
    "$oid": "65badb61301b15f1e5c0c7c3"
  },
  "": 207,
  "name": "Sapporo　Otani　University",
  "state": "Hokaido",
  "latitude": 43.082176,
  "longitude": 141.36557,
  "review_rating": 3.94,
  "difficulty_rank": "F"
},
{
  "_id": {
    "$oid": "65badb61301b15f1e5c0c7c4"
  },
  "": 208,
  "name": "Sapporo　University　of　Health　Sciences",
  "state": "Hokaido",
  "latitude": 43.132084,
  "longitude": 141.41246,
  "review_rating": 3.63,
  "difficulty_rank": "F"
},
{
  "_id": {
    "$oid": "65badb61301b15f1e5c0c7c5"
  },
  "": 209,
  "name": "Japan　HealthCare　University",
  "state": "Hokaido",
  "latitude": 43.028351,
  "longitude": 141.409714,
  "review_rating": 3.54,
  "difficulty_rank": "F"
},
{
  "_id": {
    "$oid": "65badb61301b15f1e5c0c7c6"
  },
  "": 210,
  "name": "Hokkaido　Chitose　College　of　Rehabilitation",
  "state": "Hokaido",
  "latitude": 42.785515,
  "longitude": 141.598404,
  "review_rating": 3.69,
  "difficulty_rank": "F"
},
{
  "_id": {
    "$oid": "65badb61301b15f1e5c0c7c7"
  },
  "": 211,
  "name": "Aomori　University",
  "state": "Aomori",
  "latitude": 40.783684,
  "longitude": 140.78096,
  "review_rating": 3.5,
  "difficulty_rank": "F"
},
{
  "_id": {
    "$oid": "65badb61301b15f1e5c0c7c8"
  },
  "": 212,
  "name": "Shibata Gakuen University",
  "state": "Aomori",
  "latitude": 40.581272,
  "longitude": 140.485275,
  "review_rating": 3.92,
  "difficulty_rank": "F"
},
{
  "_id": {
    "$oid": "65badb61301b15f1e5c0c7c9"
  },
  "": 213,
  "name": "Hirosaki　Gakuin　University",
  "state": "Aomori",
  "latitude": 40.581535,
  "longitude": 140.465637,
  "review_rating": 3.41,
  "difficulty_rank": "F"
},
{
  "_id": {
    "$oid": "65badb61301b15f1e5c0c7ca"
  },
  "": 214,
  "name": "Hachinohe　Institute　of　Technology",
  "state": "Aomori",
  "latitude": 40.479317,
  "longitude": 141.562363,
  "review_rating": 3.61,
  "difficulty_rank": "F"
},
{
  "_id": {
    "$oid": "65badb61301b15f1e5c0c7cb"
  },
  "": 215,
  "name": "Hachinohe　Gakuin　University",
  "state": "Aomori",
  "latitude": 40.486752,
  "longitude": 141.571655,
  "review_rating": 3.69,
  "difficulty_rank": "F"
},
{
  "_id": {
    "$oid": "65badb61301b15f1e5c0c7cc"
  },
  "": 216,
  "name": "Aomori　Chuo　Gakuin　University",
  "state": "Aomori",
  "latitude": 40.783215,
  "longitude": 140.76239,
  "review_rating": 3.66,
  "difficulty_rank": "F"
},
{
  "_id": {
    "$oid": "65badb61301b15f1e5c0c7cd"
  },
  "": 217,
  "name": "Hirosaki　University　of　Health　and　Welfare",
  "state": "Aomori",
  "latitude": 40.588799,
  "longitude": 140.500473,
  "review_rating": 3.71,
  "difficulty_rank": "F"
},
{
  "_id": {
    "$oid": "65badb61301b15f1e5c0c7ce"
  },
  "": 218,
  "name": "Iwate　Medical　University",
  "state": "Iwate",
  "latitude": 39.613033,
  "longitude": 141.161285,
  "review_rating": 3.57,
  "difficulty_rank": "D"
},
{
  "_id": {
    "$oid": "65badb61301b15f1e5c0c7cf"
  },
  "": 219,
  "name": "Fuji　University",
  "state": "Iwate",
  "latitude": 39.361206,
  "longitude": 141.102646,
  "review_rating": 3.63,
  "difficulty_rank": "F"
},
{
  "_id": {
    "$oid": "65badb61301b15f1e5c0c7d0"
  },
  "": 220,
  "name": "The　University　of　Morioka",
  "state": "Iwate",
  "latitude": 39.816113,
  "longitude": 141.137207,
  "review_rating": 3.78,
  "difficulty_rank": "F"
},
{
  "_id": {
    "$oid": "65badb61301b15f1e5c0c7d1"
  },
  "": 221,
  "name": "Iwate　University　of　Health　and　Medical　Sciences",
  "state": "Iwate",
  "latitude": 39.703228,
  "longitude": 141.131851,
  "review_rating": 3.33,
  "difficulty_rank": "F"
},
{
  "_id": {
    "$oid": "65badb61301b15f1e5c0c7d2"
  },
  "": 222,
  "name": "Sendai　University",
  "state": "Miyagi",
  "latitude": 38.051693,
  "longitude": 140.771561,
  "review_rating": 3.63,
  "difficulty_rank": "F"
},
{
  "_id": {
    "$oid": "65badb61301b15f1e5c0c7d3"
  },
  "": 223,
  "name": "Tohoku　Gakuin　University",
  "state": "Miyagi",
  "latitude": 38.249531,
  "longitude": 140.877304,
  "review_rating": 3.75,
  "difficulty_rank": "D"
},
{
  "_id": {
    "$oid": "65badb61301b15f1e5c0c7d4"
  },
  "": 224,
  "name": "Tohoku　Institute　of　Technology",
  "state": "Miyagi",
  "latitude": 38.245861,
  "longitude": 140.852432,
  "review_rating": 3.62,
  "difficulty_rank": "F"
},
{
  "_id": {
    "$oid": "65badb61301b15f1e5c0c7d5"
  },
  "": 225,
  "name": "Tohoku　Fukushi　University",
  "state": "Miyagi",
  "latitude": 38.280109,
  "longitude": 140.847824,
  "review_rating": 3.78,
  "difficulty_rank": "E"
},
{
  "_id": {
    "$oid": "65badb61301b15f1e5c0c7d6"
  },
  "": 226,
  "name": "Tohoku　Medical　And　Pharmaceutical　University",
  "state": "Miyagi",
  "latitude": 38.285049,
  "longitude": 140.885559,
  "review_rating": 3.74,
  "difficulty_rank": "C"
},
{
  "_id": {
    "$oid": "65badb61301b15f1e5c0c7d7"
  },
  "": 227,
  "name": "Tohoku　Seikatsu　Bunka　University",
  "state": "Miyagi",
  "latitude": 38.302814,
  "longitude": 140.87027,
  "review_rating": 3.64,
  "difficulty_rank": "F"
},
{
  "_id": {
    "$oid": "65badb61301b15f1e5c0c7d8"
  },
  "": 228,
  "name": "Miyagi　Gakuin　Women’s　University",
  "state": "Miyagi",
  "latitude": 38.307381,
  "longitude": 140.853912,
  "review_rating": 3.9,
  "difficulty_rank": "F"
},
{
  "_id": {
    "$oid": "65badb61301b15f1e5c0c7d9"
  },
  "": 229,
  "name": "Ishinomaki　Senshu　University",
  "state": "Miyagi",
  "latitude": 38.454735,
  "longitude": 141.295639,
  "review_rating": 3.65,
  "difficulty_rank": "F"
},
{
  "_id": {
    "$oid": "65badb61301b15f1e5c0c7da"
  },
  "": 230,
  "name": "Sendai　Shirayuri　Women’s　College",
  "state": "Miyagi",
  "latitude": 38.3214,
  "longitude": 140.902542,
  "review_rating": 3.58,
  "difficulty_rank": "F"
},
{
  "_id": {
    "$oid": "65badb61301b15f1e5c0c7db"
  },
  "": 231,
  "name": "Tohoku　Bunka　Gakuen　University",
  "state": "Miyagi",
  "latitude": 38.277546,
  "longitude": 140.834534,
  "review_rating": 3.69,
  "difficulty_rank": "F"
},
{
  "_id": {
    "$oid": "65badb61301b15f1e5c0c7dc"
  },
  "": 232,
  "name": "Shokei　Gakuin　University",
  "state": "Miyagi",
  "latitude": 38.196583,
  "longitude": 140.830078,
  "review_rating": 3.82,
  "difficulty_rank": "F"
},
{
  "_id": {
    "$oid": "65badb61301b15f1e5c0c7dd"
  },
  "": 233,
  "name": "North　Asia　University",
  "state": "Akita",
  "latitude": 39.716419,
  "longitude": 140.157944,
  "review_rating": 3.26,
  "difficulty_rank": "F"
},
{
  "_id": {
    "$oid": "65badb61301b15f1e5c0c7de"
  },
  "": 234,
  "name": "Akita　University　of　Nursing　And　Welfare",
  "state": "Akita",
  "latitude": 40.281265,
  "longitude": 140.554398,
  "review_rating": 4.15,
  "difficulty_rank": "F"
},
{
  "_id": {
    "$oid": "65badb61301b15f1e5c0c7df"
  },
  "": 235,
  "name": "Japanese　Red　Cross　Akita　College　of　Nursing",
  "state": "Akita",
  "latitude": 39.685078,
  "longitude": 140.155457,
  "review_rating": 3.84,
  "difficulty_rank": "F"
},
{
  "_id": {
    "$oid": "65badb61301b15f1e5c0c7e0"
  },
  "": 236,
  "name": "Tohoku　University　of　Art　&　Design",
  "state": "Yamagata",
  "latitude": 38.218594,
  "longitude": 140.344955,
  "review_rating": 4.12,
  "difficulty_rank": "C"
},
{
  "_id": {
    "$oid": "65badb61301b15f1e5c0c7e1"
  },
  "": 237,
  "name": "Tohoku　University　of　Community　Service　And　Science",
  "state": "Yamagata",
  "latitude": 38.892662,
  "longitude": 139.817368,
  "review_rating": 3.48,
  "difficulty_rank": "F"
},
{
  "_id": {
    "$oid": "65badb61301b15f1e5c0c7e2"
  },
  "": 238,
  "name": "Tohoku　Bunkyo　College",
  "state": "Yamagata",
  "latitude": 38.209637,
  "longitude": 140.303146,
  "review_rating": 3.82,
  "difficulty_rank": "F"
},
{
  "_id": {
    "$oid": "65badb61301b15f1e5c0c7e3"
  },
  "": 239,
  "name": "Koriyama　Women’s　University",
  "state": "Fukushima",
  "latitude": 37.396683,
  "longitude": 140.352661,
  "review_rating": 3.76,
  "difficulty_rank": "F"
},
{
  "_id": {
    "$oid": "65badb61301b15f1e5c0c7e4"
  },
  "": 240,
  "name": "Ohu　University",
  "state": "Fukushima",
  "latitude": 37.41716,
  "longitude": 140.37413,
  "review_rating": 3.55,
  "difficulty_rank": "F"
},
{
  "_id": {
    "$oid": "65badb61301b15f1e5c0c7e5"
  },
  "": 241,
  "name": "Iryo Sosei University",
  "state": "Fukushima",
  "latitude": 37.018524,
  "longitude": 140.918915,
  "review_rating": 3.46,
  "difficulty_rank": "F"
},
{
  "_id": {
    "$oid": "65badb61301b15f1e5c0c7e6"
  },
  "": 242,
  "name": "Higashi　Nippon　International　University",
  "state": "Fukushima",
  "latitude": 37.057358,
  "longitude": 140.907944,
  "review_rating": 3.85,
  "difficulty_rank": "F"
},
{
  "_id": {
    "$oid": "65badb61301b15f1e5c0c7e7"
  },
  "": 243,
  "name": "Fukushima　College",
  "state": "Fukushima",
  "latitude": 37.799988,
  "longitude": 140.487549,
  "review_rating": 3.86,
  "difficulty_rank": "F"
},
{
  "_id": {
    "$oid": "65badb61301b15f1e5c0c7e8"
  },
  "": 244,
  "name": "Ibaraki　Christian　University",
  "state": "Ibaraki",
  "latitude": 36.514248,
  "longitude": 140.617523,
  "review_rating": 3.87,
  "difficulty_rank": "E"
},
{
  "_id": {
    "$oid": "65badb61301b15f1e5c0c7e9"
  },
  "": 245,
  "name": "Ryutsu　Keizai　University",
  "state": "Ibaraki",
  "latitude": 35.920582,
  "longitude": 140.168472,
  "review_rating": 3.71,
  "difficulty_rank": "F"
},
{
  "_id": {
    "$oid": "65badb61301b15f1e5c0c7ea"
  },
  "": 246,
  "name": "Tokiwa　University",
  "state": "Ibaraki",
  "latitude": 36.382111,
  "longitude": 140.438705,
  "review_rating": 3.75,
  "difficulty_rank": "F"
},
{
  "_id": {
    "$oid": "65badb61301b15f1e5c0c7eb"
  },
  "": 247,
  "name": "Tsukuba　International　University",
  "state": "Ibaraki",
  "latitude": 36.107651,
  "longitude": 140.198837,
  "review_rating": 3.68,
  "difficulty_rank": "F"
},
{
  "_id": {
    "$oid": "65badb61301b15f1e5c0c7ec"
  },
  "": 248,
  "name": "Tsukuba　Gakuin　University",
  "state": "Ibaraki",
  "latitude": 36.087753,
  "longitude": 140.107864,
  "review_rating": 3.53
},
{
  "_id": {
    "$oid": "65badb61301b15f1e5c0c7ed"
  },
  "": 249,
  "name": "Nihon　Wellness　Sports　University",
  "state": "Ibaraki",
  "latitude": 35.859886,
  "longitude": 140.145737,
  "review_rating": 3.58,
  "difficulty_rank": "F"
},
{
  "_id": {
    "$oid": "65badb61301b15f1e5c0c7ee"
  },
  "": 250,
  "name": "Ashikaga　University",
  "state": "Tochigi",
  "latitude": 36.35326,
  "longitude": 139.396027,
  "review_rating": 3.66,
  "difficulty_rank": "F"
},
{
  "_id": {
    "$oid": "65badb61301b15f1e5c0c7ef"
  },
  "": 251,
  "name": "Hakuoh　University",
  "state": "Tochigi",
  "latitude": 36.313366,
  "longitude": 139.807495,
  "review_rating": 3.9,
  "difficulty_rank": "E"
},
{
  "_id": {
    "$oid": "65badb61301b15f1e5c0c7f0"
  },
  "": 252,
  "name": "Sakushin　Gakuin　University",
  "state": "Tochigi",
  "latitude": 36.544083,
  "longitude": 139.973999,
  "review_rating": 3.83,
  "difficulty_rank": "F"
},
{
  "_id": {
    "$oid": "65badb61301b15f1e5c0c7f1"
  },
  "": 253,
  "name": "International　University　of　Health　And　Welfare",
  "state": "Tochigi",
  "latitude": 36.87048,
  "longitude": 140.069229,
  "review_rating": 3.92,
  "difficulty_rank": "D"
},
{
  "_id": {
    "$oid": "65badb61301b15f1e5c0c7f2"
  },
  "": 254,
  "name": "Utsunomiya　Kyowa　University",
  "state": "Tochigi",
  "latitude": 36.560459,
  "longitude": 139.890869,
  "review_rating": 3.87,
  "difficulty_rank": "F"
},
{
  "_id": {
    "$oid": "65badb61301b15f1e5c0c7f3"
  },
  "": 255,
  "name": "Bunsei　University　of　Art",
  "state": "Tochigi",
  "latitude": 36.598911,
  "longitude": 139.859558,
  "review_rating": 3.8,
  "difficulty_rank": "F"
},
{
  "_id": {
    "$oid": "65badb61301b15f1e5c0c7f4"
  },
  "": 256,
  "name": "Jichi　Medical　University",
  "state": "Tochigi",
  "latitude": 36.4034,
  "longitude": 139.858521,
  "review_rating": 4.1,
  "difficulty_rank": "B"
},
{
  "_id": {
    "$oid": "65badb61301b15f1e5c0c7f5"
  },
  "": 257,
  "name": "Dokkyo　Medical　University",
  "state": "Tochigi",
  "latitude": 36.472305,
  "longitude": 139.825363,
  "review_rating": 3.95,
  "difficulty_rank": "B"
},
{
  "_id": {
    "$oid": "65badb61301b15f1e5c0c7f6"
  },
  "": 258,
  "name": "Ikuei　University",
  "state": "Gunma",
  "latitude": 36.349194,
  "longitude": 139.050339,
  "review_rating": 3.81,
  "difficulty_rank": "F"
},
{
  "_id": {
    "$oid": "65badb61301b15f1e5c0c7f7"
  },
  "": 259,
  "name": "Kiryu　University",
  "state": "Gunma",
  "latitude": 36.378597,
  "longitude": 139.295685,
  "review_rating": 3.43,
  "difficulty_rank": "F"
},
{
  "_id": {
    "$oid": "65badb61301b15f1e5c0c7f8"
  },
  "": 260,
  "name": "Gunma　Paz　University",
  "state": "Gunma",
  "latitude": 36.349514,
  "longitude": 139.008804,
  "review_rating": 3.79,
  "difficulty_rank": "E"
},
{
  "_id": {
    "$oid": "65badb61301b15f1e5c0c7f9"
  },
  "": 261,
  "name": "Gunma　University　of　Health　And　Welfare",
  "state": "Gunma",
  "latitude": 36.355843,
  "longitude": 139.047913,
  "review_rating": 3.49,
  "difficulty_rank": "E"
},
{
  "_id": {
    "$oid": "65badb61301b15f1e5c0c7fa"
  },
  "": 262,
  "name": "Takasaki　University　of　Health　And　Welfare",
  "state": "Gunma",
  "latitude": 36.324902,
  "longitude": 139.054886,
  "review_rating": 3.76,
  "difficulty_rank": "E"
},
{
  "_id": {
    "$oid": "65badb61301b15f1e5c0c7fb"
  },
  "": 263,
  "name": "Takasaki　University　of　Commerce",
  "state": "Gunma",
  "latitude": 36.28566,
  "longitude": 139.034241,
  "review_rating": 3.85,
  "difficulty_rank": "E"
},
{
  "_id": {
    "$oid": "65badb61301b15f1e5c0c7fc"
  },
  "": 264,
  "name": "Jobu　University",
  "state": "Gunma",
  "latitude": 36.279305,
  "longitude": 139.176224,
  "review_rating": 3.6,
  "difficulty_rank": "F"
},
{
  "_id": {
    "$oid": "65badb61301b15f1e5c0c7fd"
  },
  "": 265,
  "name": "Kanto　Gakuen　University",
  "state": "Gunma",
  "latitude": 36.286465,
  "longitude": 139.356094,
  "review_rating": 3.72,
  "difficulty_rank": "F"
},
{
  "_id": {
    "$oid": "65badb61301b15f1e5c0c7fe"
  },
  "": 266,
  "name": "KYOAI　GAKUEN　UNIVERSITY",
  "state": "Gunma",
  "latitude": 36.35886,
  "longitude": 139.144562,
  "review_rating": 3.96,
  "difficulty_rank": "E"
},
{
  "_id": {
    "$oid": "65badb61301b15f1e5c0c7ff"
  },
  "": 267,
  "name": "Nihon　Institute　of　Medical　Science",
  "state": "Saitama",
  "latitude": 35.931942,
  "longitude": 139.343781,
  "review_rating": 3.16,
  "difficulty_rank": "E"
},
{
  "_id": {
    "$oid": "65badb61301b15f1e5c0c800"
  },
  "": 268,
  "name": "Nihon　Pharmaceutical　University",
  "state": "Saitama",
  "latitude": 35.991798,
  "longitude": 139.617203,
  "review_rating": 3.44,
  "difficulty_rank": "F"
},
{
  "_id": {
    "$oid": "65badb61301b15f1e5c0c801"
  },
  "": 269,
  "name": "Musashino　Gakuin　University",
  "state": "Saitama",
  "latitude": 35.866592,
  "longitude": 139.387009,
  "review_rating": 3.71,
  "difficulty_rank": "F"
},
{
  "_id": {
    "$oid": "65badb61301b15f1e5c0c802"
  },
  "": 270,
  "name": "Urawa　University",
  "state": "Saitama",
  "latitude": 35.890373,
  "longitude": 139.712662,
  "review_rating": 4.04,
  "difficulty_rank": "F"
},
{
  "_id": {
    "$oid": "65badb61301b15f1e5c0c803"
  },
  "": 271,
  "name": "Institute　of　Technologists",
  "state": "Saitama",
  "latitude": 36.115143,
  "longitude": 139.456436,
  "review_rating": 3.83,
  "difficulty_rank": "F"
},
{
  "_id": {
    "$oid": "65badb61301b15f1e5c0c804"
  },
  "": 272,
  "name": "Kyoei　University",
  "state": "Saitama",
  "latitude": 35.995708,
  "longitude": 139.722092,
  "review_rating": 3.53,
  "difficulty_rank": "F"
},
{
  "_id": {
    "$oid": "65badb61301b15f1e5c0c805"
  },
  "": 273,
  "name": "Saitama　Gakuen　University",
  "state": "Saitama",
  "latitude": 35.857311,
  "longitude": 139.713959,
  "review_rating": 3.65,
  "difficulty_rank": "F"
},
{
  "_id": {
    "$oid": "65badb61301b15f1e5c0c806"
  },
  "": 274,
  "name": "Shobi　University",
  "state": "Saitama",
  "latitude": 35.906914,
  "longitude": 139.460602,
  "review_rating": 3.65,
  "difficulty_rank": "F"
},
{
  "_id": {
    "$oid": "65badb61301b15f1e5c0c807"
  },
  "": 275,
  "name": "University　of　Human　Arts　And　Sciences",
  "state": "Saitama",
  "latitude": 35.970203,
  "longitude": 139.658371,
  "review_rating": 3.61,
  "difficulty_rank": "F"
},
{
  "_id": {
    "$oid": "65badb61301b15f1e5c0c808"
  },
  "": 276,
  "name": "Bunri　University　of　Hospitality",
  "state": "Saitama",
  "latitude": 35.891426,
  "longitude": 139.418518,
  "review_rating": 3.49,
  "difficulty_rank": "F"
},
{
  "_id": {
    "$oid": "65badb61301b15f1e5c0c809"
  },
  "": 277,
  "name": "Jumonji　University",
  "state": "Saitama",
  "latitude": 35.799313,
  "longitude": 139.552094,
  "review_rating": 3.81,
  "difficulty_rank": "F"
},
{
  "_id": {
    "$oid": "65badb61301b15f1e5c0c80a"
  },
  "": 278,
  "name": "Heisei　International　University",
  "state": "Saitama",
  "latitude": 36.096184,
  "longitude": 139.637634,
  "review_rating": 3.74,
  "difficulty_rank": "F"
},
{
  "_id": {
    "$oid": "65badb61301b15f1e5c0c80b"
  },
  "": 279,
  "name": "Tokyo International University",
  "state": "Saitama",
  "latitude": 35.927303,
  "longitude": 139.437866,
  "review_rating": 3.96,
  "difficulty_rank": "F"
},
{
  "_id": {
    "$oid": "65badb61301b15f1e5c0c80c"
  },
  "": 280,
  "name": "Josai　University",
  "state": "Saitama",
  "latitude": 35.933132,
  "longitude": 139.34201,
  "review_rating": 3.52,
  "difficulty_rank": "F"
},
{
  "_id": {
    "$oid": "65badb61301b15f1e5c0c80d"
  },
  "": 281,
  "name": "Toho　College　of　Music",
  "state": "Saitama",
  "latitude": 35.896595,
  "longitude": 139.523529,
  "review_rating": 4.02
},
{
  "_id": {
    "$oid": "65badb61301b15f1e5c0c80e"
  },
  "": 282,
  "name": "Dokkyo　University",
  "state": "Saitama",
  "latitude": 35.83942,
  "longitude": 139.794189,
  "review_rating": 3.95,
  "difficulty_rank": "C"
},
{
  "_id": {
    "$oid": "65badb61301b15f1e5c0c80f"
  },
  "": 283,
  "name": "Nippon　Institute　of　Technology",
  "state": "Saitama",
  "latitude": 36.026604,
  "longitude": 139.713486,
  "review_rating": 3.66,
  "difficulty_rank": "F"
},
{
  "_id": {
    "$oid": "65badb61301b15f1e5c0c810"
  },
  "": 284,
  "name": "Meikai　University",
  "state": "Saitama",
  "latitude": 35.933132,
  "longitude": 139.34201,
  "review_rating": 3.77,
  "difficulty_rank": "E"
},
{
  "_id": {
    "$oid": "65badb61301b15f1e5c0c811"
  },
  "": 285,
  "name": "Saitama　Medical　University",
  "state": "Saitama",
  "latitude": 35.936001,
  "longitude": 139.304062,
  "review_rating": 3.8,
  "difficulty_rank": "D"
},
{
  "_id": {
    "$oid": "65badb61301b15f1e5c0c812"
  },
  "": 286,
  "name": "Saitama　Institute　of　Technology",
  "state": "Saitama",
  "latitude": 36.19603,
  "longitude": 139.238739,
  "review_rating": 3.59,
  "difficulty_rank": "F"
},
{
  "_id": {
    "$oid": "65badb61301b15f1e5c0c813"
  },
  "": 287,
  "name": "Surugadai　University",
  "state": "Saitama",
  "latitude": 35.835243,
  "longitude": 139.334778,
  "review_rating": 3.75,
  "difficulty_rank": "E"
},
{
  "_id": {
    "$oid": "65badb61301b15f1e5c0c814"
  },
  "": 288,
  "name": "Seigakuin　University",
  "state": "Saitama",
  "latitude": 35.937756,
  "longitude": 139.595535,
  "review_rating": 3.7,
  "difficulty_rank": "F"
},
{
  "_id": {
    "$oid": "65badb61301b15f1e5c0c815"
  },
  "": 289,
  "name": "Kagawa　Nutrition　University",
  "state": "Saitama",
  "latitude": 35.952763,
  "longitude": 139.410965,
  "review_rating": 4.12,
  "difficulty_rank": "E"
},
{
  "_id": {
    "$oid": "65badb61301b15f1e5c0c816"
  },
  "": 290,
  "name": "Tohto　University",
  "state": "Saitama",
  "latitude": 36.18111,
  "longitude": 139.298462,
  "review_rating": 3.46,
  "difficulty_rank": "F"
},
{
  "_id": {
    "$oid": "65badb61301b15f1e5c0c817"
  },
  "": 291,
  "name": "Japan　University　of　Health　Sciences",
  "state": "Saitama",
  "latitude": 36.071983,
  "longitude": 139.73082,
  "review_rating": 3.33,
  "difficulty_rank": "F"
},
{
  "_id": {
    "$oid": "65badb61301b15f1e5c0c818"
  },
  "": 292,
  "name": "Chiba　Institute　of　Science",
  "state": "Chiba",
  "latitude": 35.701206,
  "longitude": 140.846268,
  "review_rating": 3.31,
  "difficulty_rank": "F"
},
{
  "_id": {
    "$oid": "65badb61301b15f1e5c0c819"
  },
  "": 293,
  "name": "Aikoku　Gakuen　University",
  "state": "Chiba",
  "latitude": 35.666553,
  "longitude": 140.157578,
  "review_rating": 3.68,
  "difficulty_rank": "F"
},
{
  "_id": {
    "$oid": "65badb61301b15f1e5c0c81a"
  },
  "": 294,
  "name": "Kaichi　International　University",
  "state": "Chiba",
  "latitude": 35.862244,
  "longitude": 139.987976,
  "review_rating": 4.07,
  "difficulty_rank": "F"
},
{
  "_id": {
    "$oid": "65badb61301b15f1e5c0c81b"
  },
  "": 295,
  "name": "Seiwa　University",
  "state": "Chiba",
  "latitude": 35.376106,
  "longitude": 139.958008,
  "review_rating": 3.19,
  "difficulty_rank": "F"
},
{
  "_id": {
    "$oid": "65badb61301b15f1e5c0c81c"
  },
  "": 296,
  "name": "Josai　International　University",
  "state": "Chiba",
  "latitude": 35.580254,
  "longitude": 140.395966,
  "review_rating": 3.61,
  "difficulty_rank": "F"
},
{
  "_id": {
    "$oid": "65badb61301b15f1e5c0c81d"
  },
  "": 297,
  "name": "Shukutoku　University",
  "state": "Chiba",
  "latitude": 35.574577,
  "longitude": 140.144501,
  "review_rating": 3.81,
  "difficulty_rank": "E"
},
{
  "_id": {
    "$oid": "65badb61301b15f1e5c0c81e"
  },
  "": 298,
  "name": "Keiai　University",
  "state": "Chiba",
  "latitude": 35.633312,
  "longitude": 140.103821,
  "review_rating": 3.74,
  "difficulty_rank": "F"
},
{
  "_id": {
    "$oid": "65badb61301b15f1e5c0c81f"
  },
  "": 299,
  "name": "Chiba　Institute　of　Technology",
  "state": "Chiba",
  "latitude": 35.688942,
  "longitude": 140.021255,
  "review_rating": 3.75,
  "difficulty_rank": "D"
},
{
  "_id": {
    "$oid": "65badb61301b15f1e5c0c820"
  },
  "": 300,
  "name": "Chiba　University　of　Commerce",
  "state": "Chiba",
  "latitude": 35.742493,
  "longitude": 139.907028,
  "review_rating": 3.69,
  "difficulty_rank": "E"
},
{
  "_id": {
    "$oid": "65badb61301b15f1e5c0c821"
  },
  "": 301,
  "name": "Chuogakuin　University",
  "state": "Chiba",
  "latitude": 35.8829,
  "longitude": 140.01796,
  "review_rating": 3.76,
  "difficulty_rank": "F"
},
{
  "_id": {
    "$oid": "65badb61301b15f1e5c0c822"
  },
  "": 302,
  "name": "Reitaku　University",
  "state": "Chiba",
  "latitude": 35.831802,
  "longitude": 139.951187,
  "review_rating": 3.81,
  "difficulty_rank": "E"
},
{
  "_id": {
    "$oid": "65badb61301b15f1e5c0c823"
  },
  "": 303,
  "name": "Wayo　Women’s　University",
  "state": "Chiba",
  "latitude": 35.742989,
  "longitude": 139.904266,
  "review_rating": 4.05,
  "difficulty_rank": "F"
},
{
  "_id": {
    "$oid": "65badb61301b15f1e5c0c824"
  },
  "": 304,
  "name": "International　Budo　University",
  "state": "Chiba",
  "latitude": 35.161568,
  "longitude": 140.322876,
  "review_rating": 3.59,
  "difficulty_rank": "F"
},
{
  "_id": {
    "$oid": "65badb61301b15f1e5c0c825"
  },
  "": 305,
  "name": "Kanda　University　of　International　Studies",
  "state": "Chiba",
  "latitude": 35.656132,
  "longitude": 140.042236,
  "review_rating": 4.05,
  "difficulty_rank": "D"
},
{
  "_id": {
    "$oid": "65badb61301b15f1e5c0c826"
  },
  "": 306,
  "name": "Chiba　Keizai　University",
  "state": "Chiba",
  "latitude": 35.62973,
  "longitude": 140.109146,
  "review_rating": 3.65,
  "difficulty_rank": "E"
},
{
  "_id": {
    "$oid": "65badb61301b15f1e5c0c827"
  },
  "": 307,
  "name": "Shumei　University",
  "state": "Chiba",
  "latitude": 35.77285,
  "longitude": 140.099426,
  "review_rating": 3.93,
  "difficulty_rank": "E"
},
{
  "_id": {
    "$oid": "65badb61301b15f1e5c0c828"
  },
  "": 308,
  "name": "Kawamura　Gakuen　Woman’s　University",
  "state": "Chiba",
  "latitude": 35.875843,
  "longitude": 140.053757,
  "review_rating": 3.51,
  "difficulty_rank": "F"
},
{
  "_id": {
    "$oid": "65badb61301b15f1e5c0c829"
  },
  "": 309,
  "name": "Tokyo　University　of　Information　Sciences",
  "state": "Chiba",
  "latitude": 35.637684,
  "longitude": 140.203354,
  "review_rating": 3.83,
  "difficulty_rank": "E"
},
{
  "_id": {
    "$oid": "65badb61301b15f1e5c0c82a"
  },
  "": 310,
  "name": "Tokyo　Christian　University",
  "state": "Chiba",
  "latitude": 35.789703,
  "longitude": 140.125168,
  "review_rating": 4.23
},
{
  "_id": {
    "$oid": "65badb61301b15f1e5c0c82b"
  },
  "": 311,
  "name": "Seitoku　University",
  "state": "Chiba",
  "latitude": 35.783543,
  "longitude": 139.903381,
  "review_rating": 3.6,
  "difficulty_rank": "F"
},
{
  "_id": {
    "$oid": "65badb61301b15f1e5c0c82c"
  },
  "": 312,
  "name": "Edogawa　University",
  "state": "Chiba",
  "latitude": 35.877056,
  "longitude": 139.938934,
  "review_rating": 3.57,
  "difficulty_rank": "E"
},
{
  "_id": {
    "$oid": "65badb61301b15f1e5c0c82d"
  },
  "": 313,
  "name": "Ryotokuji　University",
  "state": "Chiba",
  "latitude": 35.639462,
  "longitude": 139.926636,
  "review_rating": 3.66,
  "difficulty_rank": "E"
},
{
  "_id": {
    "$oid": "65badb61301b15f1e5c0c82e"
  },
  "": 314,
  "name": "Uekusa　Gakuen　University",
  "state": "Chiba",
  "latitude": 35.634373,
  "longitude": 140.181976,
  "review_rating": 3.88,
  "difficulty_rank": "F"
},
{
  "_id": {
    "$oid": "65badb61301b15f1e5c0c82f"
  },
  "": 315,
  "name": "Saniku　Gakuin　College",
  "state": "Chiba",
  "latitude": 35.243866,
  "longitude": 140.262909,
  "review_rating": 4.08,
  "difficulty_rank": "F"
},
{
  "_id": {
    "$oid": "65badb61301b15f1e5c0c830"
  },
  "": 316,
  "name": "Kameda University　of　Health　Sciences",
  "state": "Chiba",
  "latitude": 35.102497,
  "longitude": 140.100525,
  "review_rating": 3.31,
  "difficulty_rank": "F"
},
{
  "_id": {
    "$oid": "65badb61301b15f1e5c0c831"
  },
  "": 317,
  "name": "Tokyo　University　of　Social　Welfare",
  "state": "Gunma",
  "latitude": 36.285713,
  "longitude": 139.194138,
  "review_rating": 3.82,
  "difficulty_rank": "F"
},
{
  "_id": {
    "$oid": "65badb61301b15f1e5c0c832"
  },
  "": 318,
  "name": "Atomi　University",
  "state": "Tokyo",
  "latitude": 35.71693,
  "longitude": 139.734116,
  "review_rating": 3.83,
  "difficulty_rank": "E"
},
{
  "_id": {
    "$oid": "65badb61301b15f1e5c0c833"
  },
  "": 319,
  "name": "Bunkyo　University",
  "state": "Tokyo",
  "latitude": 35.605209,
  "longitude": 139.705902,
  "review_rating": 3.89,
  "difficulty_rank": "D"
},
{
  "_id": {
    "$oid": "65badb61301b15f1e5c0c834"
  },
  "": 320,
  "name": "Bunkyo　Gakuin　University",
  "state": "Tokyo",
  "latitude": 35.718536,
  "longitude": 139.757568,
  "review_rating": 3.74,
  "difficulty_rank": "F"
},
{
  "_id": {
    "$oid": "65badb61301b15f1e5c0c835"
  },
  "": 321,
  "name": "Mejiro　University",
  "state": "Tokyo",
  "latitude": 35.716835,
  "longitude": 139.681244,
  "review_rating": 3.51,
  "difficulty_rank": "E"
},
{
  "_id": {
    "$oid": "65badb61301b15f1e5c0c836"
  },
  "": 322,
  "name": "Tokyo　Seitoku　University",
  "state": "Tokyo",
  "latitude": 35.756275,
  "longitude": 139.72403,
  "review_rating": 3.87,
  "difficulty_rank": "F"
},
{
  "_id": {
    "$oid": "65badb61301b15f1e5c0c837"
  },
  "": 323,
  "name": "Toyo　Gakuen　University",
  "state": "Tokyo",
  "latitude": 35.704567,
  "longitude": 139.757568,
  "review_rating": 3.54,
  "difficulty_rank": "F"
},
{
  "_id": {
    "$oid": "65badb61301b15f1e5c0c838"
  },
  "": 324,
  "name": "Teikyo　Heisei　University",
  "state": "Tokyo",
  "latitude": 35.732563,
  "longitude": 139.718811,
  "review_rating": 3.8,
  "difficulty_rank": "E"
},
{
  "_id": {
    "$oid": "65badb61301b15f1e5c0c839"
  },
  "": 325,
  "name": "Aoyama　Gakuin　University",
  "state": "Tokyo",
  "latitude": 35.6618,
  "longitude": 139.708862,
  "review_rating": 4.03,
  "difficulty_rank": "A"
},
{
  "_id": {
    "$oid": "65badb61301b15f1e5c0c83a"
  },
  "": 326,
  "name": "Ueno　Gakuen　University",
  "state": "Tokyo",
  "latitude": 35.715767,
  "longitude": 139.782227,
  "review_rating": 3.69
},
{
  "_id": {
    "$oid": "65badb61301b15f1e5c0c83b"
  },
  "": 327,
  "name": "Otsuma　Women’s　University",
  "state": "Tokyo",
  "latitude": 35.69109,
  "longitude": 139.742264,
  "review_rating": 3.95,
  "difficulty_rank": "D"
},
{
  "_id": {
    "$oid": "65badb61301b15f1e5c0c83c"
  },
  "": 328,
  "name": "Gakushuin　University",
  "state": "Tokyo",
  "latitude": 35.721264,
  "longitude": 139.707245,
  "review_rating": 4.11,
  "difficulty_rank": "B"
},
{
  "_id": {
    "$oid": "65badb61301b15f1e5c0c83d"
  },
  "": 329,
  "name": "Kitasato University",
  "state": "Tokyo",
  "latitude": 35.645351,
  "longitude": 139.725525,
  "review_rating": 3.98,
  "difficulty_rank": "D"
},
{
  "_id": {
    "$oid": "65badb61301b15f1e5c0c83e"
  },
  "": 330,
  "name": "Kyoritsu　Women’s　University",
  "state": "Tokyo",
  "latitude": 35.693314,
  "longitude": 139.757553,
  "review_rating": 3.92,
  "difficulty_rank": "D"
},
{
  "_id": {
    "$oid": "65badb61301b15f1e5c0c83f"
  },
  "": 331,
  "name": "Keio　University",
  "state": "Tokyo",
  "latitude": 35.649147,
  "longitude": 139.742828,
  "review_rating": 4.19,
  "difficulty_rank": "S"
},
{
  "_id": {
    "$oid": "65badb61301b15f1e5c0c840"
  },
  "": 332,
  "name": "Kogakuin　University",
  "state": "Tokyo",
  "latitude": 35.690514,
  "longitude": 139.695648,
  "review_rating": 3.64,
  "difficulty_rank": "B"
},
{
  "_id": {
    "$oid": "65badb61301b15f1e5c0c841"
  },
  "": 333,
  "name": "Kokugakuin　University",
  "state": "Tokyo",
  "latitude": 35.655972,
  "longitude": 139.711365,
  "review_rating": 3.91
},
{
  "_id": {
    "$oid": "65badb61301b15f1e5c0c842"
  },
  "": 334,
  "name": "Kokushikan　University",
  "state": "Tokyo",
  "latitude": 35.646896,
  "longitude": 139.653458,
  "review_rating": 3.75,
  "difficulty_rank": "D"
},
{
  "_id": {
    "$oid": "65badb61301b15f1e5c0c843"
  },
  "": 335,
  "name": "Komazawa　University",
  "state": "Tokyo",
  "latitude": 35.628857,
  "longitude": 139.65863,
  "review_rating": 3.73,
  "difficulty_rank": "C"
},
{
  "_id": {
    "$oid": "65badb61301b15f1e5c0c844"
  },
  "": 336,
  "name": "Jissen　Women’s　University",
  "state": "Tokyo",
  "latitude": 35.67152,
  "longitude": 139.38974,
  "review_rating": 3.92,
  "difficulty_rank": "D"
},
{
  "_id": {
    "$oid": "65badb61301b15f1e5c0c845"
  },
  "": 337,
  "name": "Shibaura　Institute　of　Technology",
  "state": "Tokyo",
  "latitude": 35.659737,
  "longitude": 139.794281,
  "review_rating": 3.94,
  "difficulty_rank": "C"
},
{
  "_id": {
    "$oid": "65badb61301b15f1e5c0c846"
  },
  "": 338,
  "name": "Juntendo　University",
  "state": "Tokyo",
  "latitude": 35.701954,
  "longitude": 139.761734,
  "review_rating": 4.07,
  "difficulty_rank": "C"
},
{
  "_id": {
    "$oid": "65badb61301b15f1e5c0c847"
  },
  "": 339,
  "name": "Sophia　University",
  "state": "Tokyo",
  "latitude": 35.683189,
  "longitude": 139.732742,
  "review_rating": 4.2,
  "difficulty_rank": "A"
},
{
  "_id": {
    "$oid": "65badb61301b15f1e5c0c848"
  },
  "": 340,
  "name": "Showa　University",
  "state": "Tokyo",
  "latitude": 35.60899,
  "longitude": 139.704071,
  "review_rating": 3.91,
  "difficulty_rank": "C"
},
{
  "_id": {
    "$oid": "65badb61301b15f1e5c0c849"
  },
  "": 341,
  "name": "Showa　Women’s　University",
  "state": "Tokyo",
  "latitude": 35.645466,
  "longitude": 139.675186,
  "review_rating": 3.94,
  "difficulty_rank": "C"
},
{
  "_id": {
    "$oid": "65badb61301b15f1e5c0c84a"
  },
  "": 342,
  "name": "Showa　Pharmaceutical　University",
  "state": "Tokyo",
  "latitude": 35.55368,
  "longitude": 139.470673,
  "review_rating": 3.55,
  "difficulty_rank": "C"
},
{
  "_id": {
    "$oid": "65badb61301b15f1e5c0c84b"
  },
  "": 343,
  "name": "Joshibi　University　of　Art　And　Design",
  "state": "Tokyo",
  "latitude": 35.693089,
  "longitude": 139.662079,
  "review_rating": 4,
  "difficulty_rank": "E"
},
{
  "_id": {
    "$oid": "65badb61301b15f1e5c0c84c"
  },
  "": 344,
  "name": "Sugino　Fashion　College",
  "state": "Tokyo",
  "latitude": 35.631489,
  "longitude": 139.71553,
  "review_rating": 3.51,
  "difficulty_rank": "F"
},
{
  "_id": {
    "$oid": "65badb61301b15f1e5c0c84d"
  },
  "": 345,
  "name": "Seijo　University",
  "state": "Tokyo",
  "latitude": 35.642353,
  "longitude": 139.600174,
  "review_rating": 3.81,
  "difficulty_rank": "B"
},
{
  "_id": {
    "$oid": "65badb61301b15f1e5c0c84e"
  },
  "": 346,
  "name": "University　of　The　Sacred　Heart,　Tokyo",
  "state": "Tokyo",
  "latitude": 35.653835,
  "longitude": 139.717285,
  "review_rating": 4.33,
  "difficulty_rank": "D"
},
{
  "_id": {
    "$oid": "65badb61301b15f1e5c0c84f"
  },
  "": 347,
  "name": "Seisen　University",
  "state": "Tokyo",
  "latitude": 35.626957,
  "longitude": 139.729797,
  "review_rating": 4.15,
  "difficulty_rank": "E"
},
{
  "_id": {
    "$oid": "65badb61301b15f1e5c0c850"
  },
  "": 348,
  "name": "St.Luke’s　International　University",
  "state": "Tokyo",
  "latitude": 35.668316,
  "longitude": 139.775391,
  "review_rating": 4.41,
  "difficulty_rank": "A"
},
{
  "_id": {
    "$oid": "65badb61301b15f1e5c0c851"
  },
  "": 349,
  "name": "Senshu　University",
  "state": "Tokyo",
  "latitude": 35.6968,
  "longitude": 139.753876,
  "review_rating": 3.74,
  "difficulty_rank": "C"
},
{
  "_id": {
    "$oid": "65badb61301b15f1e5c0c852"
  },
  "": 350,
  "name": "Taisho　University",
  "state": "Tokyo",
  "latitude": 35.741486,
  "longitude": 139.728256,
  "review_rating": 3.8,
  "difficulty_rank": "E"
},
{
  "_id": {
    "$oid": "65badb61301b15f1e5c0c853"
  },
  "": 351,
  "name": "Daito　Bunka　University",
  "state": "Tokyo",
  "latitude": 35.782089,
  "longitude": 139.667938,
  "review_rating": 3.69,
  "difficulty_rank": "E"
},
{
  "_id": {
    "$oid": "65badb61301b15f1e5c0c854"
  },
  "": 352,
  "name": "Takachiho　University",
  "state": "Tokyo",
  "latitude": 35.682804,
  "longitude": 139.638245,
  "review_rating": 3.56,
  "difficulty_rank": "F"
},
{
  "_id": {
    "$oid": "65badb61301b15f1e5c0c855"
  },
  "": 353,
  "name": "Takushoku　University",
  "state": "Tokyo",
  "latitude": 35.715481,
  "longitude": 139.737274,
  "review_rating": 3.64,
  "difficulty_rank": "E"
},
{
  "_id": {
    "$oid": "65badb61301b15f1e5c0c856"
  },
  "": 354,
  "name": "Tama　Art　University",
  "state": "Tokyo",
  "latitude": 35.61409,
  "longitude": 139.637085,
  "review_rating": 3.95,
  "difficulty_rank": "D"
},
{
  "_id": {
    "$oid": "65badb61301b15f1e5c0c857"
  },
  "": 355,
  "name": "Chuo　University",
  "state": "Tokyo",
  "latitude": 35.638794,
  "longitude": 139.399811,
  "review_rating": 3.91,
  "difficulty_rank": "B"
},
{
  "_id": {
    "$oid": "65badb61301b15f1e5c0c858"
  },
  "": 356,
  "name": "Tokai　University",
  "state": "Kanagawa",
  "latitude": 35.359573,
  "longitude": 139.271378,
  "review_rating": 3.8,
  "difficulty_rank": "E"
},
{
  "_id": {
    "$oid": "65badb61301b15f1e5c0c859"
  },
  "": 357,
  "name": "Tokyo　Medical　University",
  "state": "Tokyo",
  "latitude": 35.69355,
  "longitude": 139.71225,
  "review_rating": 3.9,
  "difficulty_rank": "A"
},
{
  "_id": {
    "$oid": "65badb61301b15f1e5c0c85a"
  },
  "": 358,
  "name": "Tokyo　Kasei　University",
  "state": "Tokyo",
  "latitude": 35.756275,
  "longitude": 139.719482,
  "review_rating": 3.95,
  "difficulty_rank": "E"
},
{
  "_id": {
    "$oid": "65badb61301b15f1e5c0c85b"
  },
  "": 359,
  "name": "Tokyo　Kasei　Gakuin　University",
  "state": "Tokyo",
  "latitude": 35.60841,
  "longitude": 139.310562,
  "review_rating": 3.57,
  "difficulty_rank": "F"
},
{
  "_id": {
    "$oid": "65badb61301b15f1e5c0c85c"
  },
  "": 360,
  "name": "Tokyo　Dental　College",
  "state": "Tokyo",
  "latitude": 35.701309,
  "longitude": 139.754852,
  "review_rating": 4.16,
  "difficulty_rank": "B"
},
{
  "_id": {
    "$oid": "65badb61301b15f1e5c0c85d"
  },
  "": 361,
  "name": "The　Jikei　University　School　of　Medicine",
  "state": "Tokyo",
  "latitude": 35.662537,
  "longitude": 139.75029,
  "review_rating": 4.28,
  "difficulty_rank": "A"
},
{
  "_id": {
    "$oid": "65badb61301b15f1e5c0c85e"
  },
  "": 362,
  "name": "Tokyo　Woman's　Christian　University",
  "state": "Tokyo",
  "latitude": 35.709896,
  "longitude": 139.591202,
  "review_rating": 3.93,
  "difficulty_rank": "C"
},
{
  "_id": {
    "$oid": "65badb61301b15f1e5c0c85f"
  },
  "": 363,
  "name": "Tokyo　Women’s　Medical　University",
  "state": "Tokyo",
  "latitude": 35.696342,
  "longitude": 139.719635,
  "review_rating": 4.29,
  "difficulty_rank": "C"
},
{
  "_id": {
    "$oid": "65badb61301b15f1e5c0c860"
  },
  "": 364,
  "name": "Tokyo　Denki　University",
  "state": "Tokyo",
  "latitude": 35.748764,
  "longitude": 139.806381,
  "review_rating": 3.68,
  "difficulty_rank": "C"
},
{
  "_id": {
    "$oid": "65badb61301b15f1e5c0c861"
  },
  "": 365,
  "name": "Tokyo　University　of　Agriculture",
  "state": "Tokyo",
  "latitude": 35.640781,
  "longitude": 139.631912,
  "review_rating": 3.94,
  "difficulty_rank": "D"
},
{
  "_id": {
    "$oid": "65badb61301b15f1e5c0c862"
  },
  "": 366,
  "name": "Tokyo　University　of　Pharmacy　And　Life　Sciences",
  "state": "Tokyo",
  "latitude": 35.638222,
  "longitude": 139.385071,
  "review_rating": 3.82,
  "difficulty_rank": "D"
},
{
  "_id": {
    "$oid": "65badb61301b15f1e5c0c863"
  },
  "": 367,
  "name": "Tokyo　University　of　Science",
  "state": "Tokyo",
  "latitude": 35.699505,
  "longitude": 139.741348,
  "review_rating": 3.85,
  "difficulty_rank": "B"
},
{
  "_id": {
    "$oid": "65badb61301b15f1e5c0c864"
  },
  "": 368,
  "name": "Toho　University",
  "state": "Tokyo",
  "latitude": 35.570171,
  "longitude": 139.724884,
  "review_rating": 3.98,
  "difficulty_rank": "D"
},
{
  "_id": {
    "$oid": "65badb61301b15f1e5c0c865"
  },
  "": 369,
  "name": "Toyo University",
  "state": "Tokyo",
  "latitude": 35.724289,
  "longitude": 139.750763,
  "review_rating": 3.83,
  "difficulty_rank": "C"
},
{
  "_id": {
    "$oid": "65badb61301b15f1e5c0c866"
  },
  "": 370,
  "name": "Tokyo　College　of　Music",
  "state": "Tokyo",
  "latitude": 35.647171,
  "longitude": 139.699265,
  "review_rating": 4.14,
  "difficulty_rank": "F"
},
{
  "_id": {
    "$oid": "65badb61301b15f1e5c0c867"
  },
  "": 371,
  "name": "Nishogakusha　University",
  "state": "Tokyo",
  "latitude": 35.691261,
  "longitude": 139.74527,
  "review_rating": 3.67
},
{
  "_id": {
    "$oid": "65badb61301b15f1e5c0c868"
  },
  "": 372,
  "name": "Nihon　University",
  "state": "Tokyo",
  "latitude": 35.691322,
  "longitude": 139.737396,
  "review_rating": 3.71,
  "difficulty_rank": "D"
},
{
  "_id": {
    "$oid": "65badb61301b15f1e5c0c869"
  },
  "": 373,
  "name": "Nippon　Medical　School",
  "state": "Tokyo",
  "latitude": 35.721233,
  "longitude": 139.758453,
  "review_rating": 3.99,
  "difficulty_rank": "S"
},
{
  "_id": {
    "$oid": "65badb61301b15f1e5c0c86a"
  },
  "": 374,
  "name": "The　Nippon　Dental　University",
  "state": "Tokyo",
  "latitude": 35.697971,
  "longitude": 139.746216,
  "review_rating": 3.16,
  "difficulty_rank": "D"
},
{
  "_id": {
    "$oid": "65badb61301b15f1e5c0c86b"
  },
  "": 375,
  "name": "Japan　College　of　Social　Work",
  "state": "Tokyo",
  "latitude": 35.767517,
  "longitude": 139.508698,
  "review_rating": 3.86,
  "difficulty_rank": "E"
},
{
  "_id": {
    "$oid": "65badb61301b15f1e5c0c86c"
  },
  "": 376,
  "name": "Japan Women’s University",
  "state": "Tokyo",
  "latitude": 35.715923,
  "longitude": 139.721085,
  "review_rating": 4.09,
  "difficulty_rank": "C"
},
{
  "_id": {
    "$oid": "65badb61301b15f1e5c0c86d"
  },
  "": 377,
  "name": "Japan　Women’s　College　of　Physical　Education",
  "state": "Tokyo",
  "latitude": 35.676498,
  "longitude": 139.590546,
  "review_rating": 4,
  "difficulty_rank": "F"
},
{
  "_id": {
    "$oid": "65badb61301b15f1e5c0c86e"
  },
  "": 378,
  "name": "Nippon　Sport　Science　University",
  "state": "Tokyo",
  "latitude": 35.621609,
  "longitude": 139.650009,
  "review_rating": 4.03,
  "difficulty_rank": "E"
},
{
  "_id": {
    "$oid": "65badb61301b15f1e5c0c86f"
  },
  "": 379,
  "name": "Japan　Lutheran　College",
  "state": "Tokyo",
  "latitude": 35.686474,
  "longitude": 139.527481,
  "review_rating": 3.97,
  "difficulty_rank": "F"
},
{
  "_id": {
    "$oid": "65badb61301b15f1e5c0c870"
  },
  "": 380,
  "name": "Bunka　Gakuen　University",
  "state": "Tokyo",
  "latitude": 35.685848,
  "longitude": 139.693954,
  "review_rating": 4.08,
  "difficulty_rank": "E"
},
{
  "_id": {
    "$oid": "65badb61301b15f1e5c0c871"
  },
  "": 381,
  "name": "Hosei　University",
  "state": "Tokyo",
  "latitude": 35.695679,
  "longitude": 139.74115,
  "review_rating": 3.89,
  "difficulty_rank": "B"
},
{
  "_id": {
    "$oid": "65badb61301b15f1e5c0c872"
  },
  "": 382,
  "name": "Hoshi　University",
  "state": "Tokyo",
  "latitude": 35.618053,
  "longitude": 139.712601,
  "review_rating": 3.9,
  "difficulty_rank": "B"
},
{
  "_id": {
    "$oid": "65badb61301b15f1e5c0c873"
  },
  "": 383,
  "name": "Musashi　University",
  "state": "Tokyo",
  "latitude": 35.736893,
  "longitude": 139.666885,
  "review_rating": 3.96,
  "difficulty_rank": "B"
},
{
  "_id": {
    "$oid": "65badb61301b15f1e5c0c874"
  },
  "": 384,
  "name": "Tokyo　City　University",
  "state": "Tokyo",
  "latitude": 35.596542,
  "longitude": 139.650925,
  "review_rating": 3.88,
  "difficulty_rank": "C"
},
{
  "_id": {
    "$oid": "65badb61301b15f1e5c0c875"
  },
  "": 385,
  "name": "Musashino　Academia　Musicae",
  "state": "Tokyo",
  "latitude": 35.741283,
  "longitude": 139.672195,
  "review_rating": 3.86,
  "difficulty_rank": "F"
},
{
  "_id": {
    "$oid": "65badb61301b15f1e5c0c876"
  },
  "": 386,
  "name": "Meiji　University",
  "state": "Tokyo",
  "latitude": 35.697712,
  "longitude": 139.761398,
  "review_rating": 4.01,
  "difficulty_rank": "A"
},
{
  "_id": {
    "$oid": "65badb61301b15f1e5c0c877"
  },
  "": 387,
  "name": "Meiji　Gakuin　University",
  "state": "Tokyo",
  "latitude": 35.636738,
  "longitude": 139.730743,
  "review_rating": 3.9,
  "difficulty_rank": "B"
},
{
  "_id": {
    "$oid": "65badb61301b15f1e5c0c878"
  },
  "": 388,
  "name": "Meiji　Pharmaceutical　University",
  "state": "Tokyo",
  "latitude": 35.781338,
  "longitude": 139.50618,
  "review_rating": 3.93,
  "difficulty_rank": "C"
},
{
  "_id": {
    "$oid": "65badb61301b15f1e5c0c879"
  },
  "": 389,
  "name": "Rikkyo　University",
  "state": "Tokyo",
  "latitude": 35.729706,
  "longitude": 139.704742,
  "review_rating": 4.09,
  "difficulty_rank": "A"
},
{
  "_id": {
    "$oid": "65badb61301b15f1e5c0c87a"
  },
  "": 390,
  "name": "Rissho　University",
  "state": "Tokyo",
  "latitude": 35.62101,
  "longitude": 139.724075,
  "review_rating": 3.76,
  "difficulty_rank": "E"
},
{
  "_id": {
    "$oid": "65badb61301b15f1e5c0c87b"
  },
  "": 391,
  "name": "Waseda　University",
  "state": "Tokyo",
  "latitude": 35.710083,
  "longitude": 139.722244,
  "review_rating": 4.14,
  "difficulty_rank": "S"
},
{
  "_id": {
    "$oid": "65badb61301b15f1e5c0c87c"
  },
  "": 392,
  "name": "International　College　For　Postgraduate　Buddhist　Studies",
  "state": "Tokyo",
  "latitude": 35.710667,
  "longitude": 139.740997,
  "review_rating": 5
},
{
  "_id": {
    "$oid": "65badb61301b15f1e5c0c87d"
  },
  "": 393,
  "name": "Gakushuin　Women’s　College",
  "state": "Tokyo",
  "latitude": 35.706844,
  "longitude": 139.713242,
  "review_rating": 4.19,
  "difficulty_rank": "D"
},
{
  "_id": {
    "$oid": "65badb61301b15f1e5c0c87e"
  },
  "": 394,
  "name": "International Professional University of Technology in Tokyo",
  "state": "Tokyo",
  "latitude": 35.691559,
  "longitude": 139.698044,
  "review_rating": 4
},
{
  "_id": {
    "$oid": "65badb61301b15f1e5c0c87f"
  },
  "": 395,
  "name": "Tokyo Professional University of Health Sciences",
  "state": "Tokyo",
  "latitude": 35.66444,
  "longitude": 139.813049,
  "difficulty_rank": "F"
},
{
  "_id": {
    "$oid": "65badb61301b15f1e5c0c880"
  },
  "": 396,
  "name": "Professional University of Information and Management for Innovation",
  "state": "Tokyo",
  "latitude": 35.711437,
  "longitude": 139.823807,
  "review_rating": 3.5,
  "difficulty_rank": "F"
},
{
  "_id": {
    "$oid": "65badb61301b15f1e5c0c881"
  },
  "": 397,
  "name": "Graduate School of Leadership and Innovation, Shizenkan University",
  "state": "Tokyo",
  "latitude": 35.681751,
  "longitude": 139.773468
},
{
  "_id": {
    "$oid": "65badb61301b15f1e5c0c882"
  },
  "": 398,
  "name": "Tokyo　Online　University",
  "state": "Tokyo",
  "latitude": 35.691559,
  "longitude": 139.698044,
  "review_rating": 3.78
},
{
  "_id": {
    "$oid": "65badb61301b15f1e5c0c883"
  },
  "": 399,
  "name": "Professional Institute of International Fashion",
  "state": "Tokyo",
  "latitude": 35.691559,
  "longitude": 139.698044,
  "review_rating": 4
},
{
  "_id": {
    "$oid": "65badb61301b15f1e5c0c884"
  },
  "": 400,
  "name": "Komazawa　Women’s　University",
  "state": "Tokyo",
  "latitude": 35.628113,
  "longitude": 139.493988,
  "review_rating": 3.74,
  "difficulty_rank": "E"
},
{
  "_id": {
    "$oid": "65badb61301b15f1e5c0c885"
  },
  "": 401,
  "name": "Asia　University",
  "state": "Tokyo",
  "latitude": 35.705235,
  "longitude": 139.534866,
  "review_rating": 3.75,
  "difficulty_rank": "E"
},
{
  "_id": {
    "$oid": "65badb61301b15f1e5c0c886"
  },
  "": 402,
  "name": "J.F.Oberlin　University",
  "state": "Tokyo",
  "latitude": 35.582386,
  "longitude": 139.405487,
  "review_rating": 3.8,
  "difficulty_rank": "E"
},
{
  "_id": {
    "$oid": "65badb61301b15f1e5c0c887"
  },
  "": 403,
  "name": "Kunitachi　College　of　Music",
  "state": "Tokyo",
  "latitude": 35.732414,
  "longitude": 139.410995,
  "review_rating": 4.09,
  "difficulty_rank": "F"
},
{
  "_id": {
    "$oid": "65badb61301b15f1e5c0c888"
  },
  "": 404,
  "name": "International　Christian　University",
  "state": "Tokyo",
  "latitude": 35.686474,
  "longitude": 139.527481,
  "review_rating": 4.43,
  "difficulty_rank": "S"
},
{
  "_id": {
    "$oid": "65badb61301b15f1e5c0c889"
  },
  "": 405,
  "name": "Shirayuri　University",
  "state": "Tokyo",
  "latitude": 35.668129,
  "longitude": 139.581207,
  "review_rating": 3.92,
  "difficulty_rank": "E"
},
{
  "_id": {
    "$oid": "65badb61301b15f1e5c0c88a"
  },
  "": 406,
  "name": "Seikei　University",
  "state": "Tokyo",
  "latitude": 35.710575,
  "longitude": 139.572693,
  "review_rating": 3.95,
  "difficulty_rank": "C"
},
{
  "_id": {
    "$oid": "65badb61301b15f1e5c0c88b"
  },
  "": 407,
  "name": "Tamagawa　University",
  "state": "Tokyo",
  "latitude": 35.567326,
  "longitude": 139.464844,
  "review_rating": 3.78,
  "difficulty_rank": "D"
},
{
  "_id": {
    "$oid": "65badb61301b15f1e5c0c88c"
  },
  "": 408,
  "name": "Tsuda　University",
  "state": "Tokyo",
  "latitude": 35.721451,
  "longitude": 139.465271,
  "review_rating": 4.11,
  "difficulty_rank": "C"
},
{
  "_id": {
    "$oid": "65badb61301b15f1e5c0c88d"
  },
  "": 409,
  "name": "Teikyo　University",
  "state": "Tokyo",
  "latitude": 35.759392,
  "longitude": 139.714478,
  "review_rating": 3.71,
  "difficulty_rank": "E"
},
{
  "_id": {
    "$oid": "65badb61301b15f1e5c0c88e"
  },
  "": 410,
  "name": "Tokyo　Keizai　University",
  "state": "Tokyo",
  "latitude": 35.700047,
  "longitude": 139.488266,
  "review_rating": 3.87,
  "difficulty_rank": "D"
},
{
  "_id": {
    "$oid": "65badb61301b15f1e5c0c88f"
  },
  "": 411,
  "name": "Tokyo　Women’s　College　of　Physical　Education",
  "state": "Tokyo",
  "latitude": 35.689056,
  "longitude": 139.427765,
  "review_rating": 3.8,
  "difficulty_rank": "F"
},
{
  "_id": {
    "$oid": "65badb61301b15f1e5c0c890"
  },
  "": 412,
  "name": "Tokyo　Union　Theological　Seminary",
  "state": "Tokyo",
  "latitude": 35.686474,
  "longitude": 139.527481,
  "review_rating": 2.86
},
{
  "_id": {
    "$oid": "65badb61301b15f1e5c0c891"
  },
  "": 413,
  "name": "Tokyo　Zokei　University",
  "state": "Tokyo",
  "latitude": 35.617332,
  "longitude": 139.334259,
  "review_rating": 3.86,
  "difficulty_rank": "E"
},
{
  "_id": {
    "$oid": "65badb61301b15f1e5c0c892"
  },
  "": 414,
  "name": "Toho　Gakuen　School　of　Music",
  "state": "Tokyo",
  "latitude": 35.659061,
  "longitude": 139.584274,
  "review_rating": 4.35,
  "difficulty_rank": "F"
},
{
  "_id": {
    "$oid": "65badb61301b15f1e5c0c893"
  },
  "": 415,
  "name": "Nippon　Veterinary　And　Life　Science　University",
  "state": "Tokyo",
  "latitude": 35.701889,
  "longitude": 139.546646,
  "review_rating": 4.03
},
{
  "_id": {
    "$oid": "65badb61301b15f1e5c0c894"
  },
  "": 416,
  "name": "Musashino　University",
  "state": "Tokyo",
  "latitude": 35.631275,
  "longitude": 139.786896,
  "review_rating": 3.7,
  "difficulty_rank": "D"
},
{
  "_id": {
    "$oid": "65badb61301b15f1e5c0c895"
  },
  "": 417,
  "name": "Musashino　Art　University",
  "state": "Tokyo",
  "latitude": 35.728161,
  "longitude": 139.449005,
  "review_rating": 4.01,
  "difficulty_rank": "D"
},
{
  "_id": {
    "$oid": "65badb61301b15f1e5c0c896"
  },
  "": 418,
  "name": "Meisei　University",
  "state": "Tokyo",
  "latitude": 35.645657,
  "longitude": 139.409485,
  "review_rating": 3.75,
  "difficulty_rank": "D"
},
{
  "_id": {
    "$oid": "65badb61301b15f1e5c0c897"
  },
  "": 419,
  "name": "WAKO　UNIVERSITY",
  "state": "Tokyo",
  "latitude": 35.573551,
  "longitude": 139.463898,
  "review_rating": 3.59,
  "difficulty_rank": "F"
},
{
  "_id": {
    "$oid": "65badb61301b15f1e5c0c898"
  },
  "": 420,
  "name": "Kyorin　University",
  "state": "Tokyo",
  "latitude": 35.677597,
  "longitude": 139.565598,
  "review_rating": 3.77,
  "difficulty_rank": "D"
},
{
  "_id": {
    "$oid": "65badb61301b15f1e5c0c899"
  },
  "": 421,
  "name": "Soka　University",
  "state": "Tokyo",
  "latitude": 35.687759,
  "longitude": 139.327942,
  "review_rating": 4.35,
  "difficulty_rank": "E"
},
{
  "_id": {
    "$oid": "65badb61301b15f1e5c0c89a"
  },
  "": 422,
  "name": "Nihon　Bunka　University",
  "state": "Tokyo",
  "latitude": 35.633663,
  "longitude": 139.341354,
  "review_rating": 3.22,
  "difficulty_rank": "F"
},
{
  "_id": {
    "$oid": "65badb61301b15f1e5c0c89b"
  },
  "": 423,
  "name": "Tokyo　University　of　Technology",
  "state": "Tokyo",
  "latitude": 35.626556,
  "longitude": 139.341415,
  "review_rating": 3.56,
  "difficulty_rank": "E"
},
{
  "_id": {
    "$oid": "65badb61301b15f1e5c0c89c"
  },
  "": 424,
  "name": "Japanese　Red　Cross　College　of　Nursing",
  "state": "Tokyo",
  "latitude": 35.654263,
  "longitude": 139.717285,
  "review_rating": 4.38,
  "difficulty_rank": "C"
},
{
  "_id": {
    "$oid": "65badb61301b15f1e5c0c89d"
  },
  "": 425,
  "name": "Keisen　University",
  "state": "Tokyo",
  "latitude": 35.60828,
  "longitude": 139.436417,
  "review_rating": 3.79,
  "difficulty_rank": "F"
},
{
  "_id": {
    "$oid": "65badb61301b15f1e5c0c89e"
  },
  "": 426,
  "name": "Tama　University",
  "state": "Tokyo",
  "latitude": 35.630268,
  "longitude": 139.463898,
  "review_rating": 3.34,
  "difficulty_rank": "F"
},
{
  "_id": {
    "$oid": "65badb61301b15f1e5c0c89f"
  },
  "": 427,
  "name": "Tokyo　Junshin　University",
  "state": "Tokyo",
  "latitude": 35.691895,
  "longitude": 139.335144,
  "review_rating": 3.58,
  "difficulty_rank": "F"
},
{
  "_id": {
    "$oid": "65badb61301b15f1e5c0c8a0"
  },
  "": 428,
  "name": "Kaetsu　University",
  "state": "Tokyo",
  "latitude": 35.720676,
  "longitude": 139.514572,
  "review_rating": 3.2,
  "difficulty_rank": "F"
},
{
  "_id": {
    "$oid": "65badb61301b15f1e5c0c8a1"
  },
  "": 429,
  "name": "Tokyo　Fuji　University",
  "state": "Tokyo",
  "latitude": 35.715672,
  "longitude": 139.699997,
  "review_rating": 3.48,
  "difficulty_rank": "F"
},
{
  "_id": {
    "$oid": "65badb61301b15f1e5c0c8a2"
  },
  "": 430,
  "name": "LEC Graduate University",
  "state": "Tokyo",
  "latitude": 35.700062,
  "longitude": 139.7547
},
{
  "_id": {
    "$oid": "65badb61301b15f1e5c0c8a3"
  },
  "": 431,
  "name": "Digital Hollywood University",
  "state": "Tokyo",
  "latitude": 35.698673,
  "longitude": 139.766403,
  "review_rating": 4.25,
  "difficulty_rank": "D"
},
{
  "_id": {
    "$oid": "65badb61301b15f1e5c0c8a4"
  },
  "": 432,
  "name": "Shiraume　Gakuen　University",
  "state": "Tokyo",
  "latitude": 35.725597,
  "longitude": 139.451126,
  "review_rating": 3.95,
  "difficulty_rank": "E"
},
{
  "_id": {
    "$oid": "65badb61301b15f1e5c0c8a5"
  },
  "": 433,
  "name": "Tokyo　Healthcare　University",
  "state": "Tokyo",
  "latitude": 35.631287,
  "longitude": 139.726364,
  "review_rating": 3.65,
  "difficulty_rank": "E"
},
{
  "_id": {
    "$oid": "65badb61301b15f1e5c0c8a6"
  },
  "": 434,
  "name": "Tokyo　Seiei　College",
  "state": "Tokyo",
  "latitude": 35.718178,
  "longitude": 139.856979,
  "review_rating": 3.79,
  "difficulty_rank": "F"
},
{
  "_id": {
    "$oid": "65badb61301b15f1e5c0c8a7"
  },
  "": 435,
  "name": "Business Breakthrough University",
  "state": "Tokyo",
  "latitude": 35.687626,
  "longitude": 139.735382,
  "review_rating": 4.23
},
{
  "_id": {
    "$oid": "65badb61301b15f1e5c0c8a8"
  },
  "": 436,
  "name": "Graduate　School　of　Management,　GLOBIS　University",
  "state": "Tokyo",
  "latitude": 35.685379,
  "longitude": 139.736298,
  "review_rating": 5
},
{
  "_id": {
    "$oid": "65badb61301b15f1e5c0c8a9"
  },
  "": 437,
  "name": "Bunka　Fashion　Graduate　University",
  "state": "Tokyo",
  "latitude": 35.685848,
  "longitude": 139.693954
},
{
  "_id": {
    "$oid": "65badb61301b15f1e5c0c8aa"
  },
  "": 438,
  "name": "Ohara　Graduate　School　of　Accounting",
  "state": "Tokyo",
  "latitude": 35.699211,
  "longitude": 139.756836,
  "review_rating": 3.82
},
{
  "_id": {
    "$oid": "65badb61301b15f1e5c0c8ab"
  },
  "": 439,
  "name": "Tokyo　Future　University",
  "state": "Tokyo",
  "latitude": 35.743179,
  "longitude": 139.816635,
  "review_rating": 3.87,
  "difficulty_rank": "F"
},
{
  "_id": {
    "$oid": "65badb61301b15f1e5c0c8ac"
  },
  "": 440,
  "name": "Hollywood　Graduate　School　of　Beauty　Business",
  "state": "Tokyo",
  "latitude": 35.661423,
  "longitude": 139.729691,
  "review_rating": 3.67
},
{
  "_id": {
    "$oid": "65badb61301b15f1e5c0c8ad"
  },
  "": 441,
  "name": "Sbi　Graduate　School",
  "state": "Tokyo",
  "latitude": 35.664543,
  "longitude": 139.739487
},
{
  "_id": {
    "$oid": "65badb61301b15f1e5c0c8ae"
  },
  "": 442,
  "name": "Hosen　College　of　Childhood　Education",
  "state": "Tokyo",
  "latitude": 35.700001,
  "longitude": 139.678802,
  "review_rating": 3.63,
  "difficulty_rank": "F"
},
{
  "_id": {
    "$oid": "65badb61301b15f1e5c0c8af"
  },
  "": 443,
  "name": "Tokyo　Ariake　University　of　Medical　And　Health　Sciences",
  "state": "Tokyo",
  "latitude": 35.64106,
  "longitude": 139.7966,
  "review_rating": 3.71,
  "difficulty_rank": "F"
},
{
  "_id": {
    "$oid": "65badb61301b15f1e5c0c8b0"
  },
  "": 444,
  "name": "Tokyo　Polytechnic　University",
  "state": "Tokyo",
  "latitude": 35.692814,
  "longitude": 139.679535,
  "review_rating": 3.65,
  "difficulty_rank": "E"
},
{
  "_id": {
    "$oid": "65badb61301b15f1e5c0c8b1"
  },
  "": 445,
  "name": "Sanno　University",
  "state": "Tokyo",
  "latitude": 35.613804,
  "longitude": 139.661514,
  "review_rating": 3.83,
  "difficulty_rank": "D"
},
{
  "_id": {
    "$oid": "65badb61301b15f1e5c0c8b2"
  },
  "": 446,
  "name": "Yamazaki　University　of　Animal　Health　Technology",
  "state": "Tokyo",
  "latitude": 35.611378,
  "longitude": 139.375656,
  "review_rating": 3.57,
  "difficulty_rank": "E"
},
{
  "_id": {
    "$oid": "65badb61301b15f1e5c0c8b3"
  },
  "": 447,
  "name": "University　of　Tokyo　Health　Sciences",
  "state": "Tokyo",
  "latitude": 35.612213,
  "longitude": 139.42894,
  "review_rating": 3.39,
  "difficulty_rank": "F"
},
{
  "_id": {
    "$oid": "65badb61301b15f1e5c0c8b4"
  },
  "": 448,
  "name": "The　Graduate　School　of　Project　Design",
  "state": "Tokyo",
  "latitude": 35.665565,
  "longitude": 139.713745
},
{
  "_id": {
    "$oid": "65badb61301b15f1e5c0c8b5"
  },
  "": 449,
  "name": "The　Graduate　School　of　Social Design",
  "state": "Tokyo",
  "latitude": 35.712387,
  "longitude": 139.706604
},
{
  "_id": {
    "$oid": "65badb61301b15f1e5c0c8b6"
  },
  "": 450,
  "name": "Teikyo　University　of　Science",
  "state": "Tokyo",
  "latitude": 35.753677,
  "longitude": 139.789429,
  "review_rating": 3.58,
  "difficulty_rank": "E"
},
{
  "_id": {
    "$oid": "65badb61301b15f1e5c0c8b7"
  },
  "": 451,
  "name": "Seisa　University",
  "state": "Kanagawa",
  "latitude": 35.265572,
  "longitude": 138.999374,
  "review_rating": 4.15
},
{
  "_id": {
    "$oid": "65badb61301b15f1e5c0c8b8"
  },
  "": 452,
  "name": "Kanagawa　University",
  "state": "Kanagawa",
  "latitude": 35.484413,
  "longitude": 139.620773,
  "review_rating": 3.68,
  "difficulty_rank": "D"
},
{
  "_id": {
    "$oid": "65badb61301b15f1e5c0c8b9"
  },
  "": 453,
  "name": "Kanto　Gakuin　University",
  "state": "Kanagawa",
  "latitude": 35.32428,
  "longitude": 139.625931,
  "review_rating": 3.54,
  "difficulty_rank": "F"
},
{
  "_id": {
    "$oid": "65badb61301b15f1e5c0c8ba"
  },
  "": 454,
  "name": "Tsurumi　University",
  "state": "Kanagawa",
  "latitude": 35.506329,
  "longitude": 139.6707,
  "review_rating": 3.75,
  "difficulty_rank": "F"
},
{
  "_id": {
    "$oid": "65badb61301b15f1e5c0c8bb"
  },
  "": 455,
  "name": "Ferris　University",
  "state": "Kanagawa",
  "latitude": 35.437656,
  "longitude": 139.525589,
  "review_rating": 4.06,
  "difficulty_rank": "F"
},
{
  "_id": {
    "$oid": "65badb61301b15f1e5c0c8bc"
  },
  "": 456,
  "name": "Yokohama　College　of　Commerce",
  "state": "Kanagawa",
  "latitude": 35.498199,
  "longitude": 139.659317,
  "review_rating": 3.51,
  "difficulty_rank": "F"
},
{
  "_id": {
    "$oid": "65badb61301b15f1e5c0c8bd"
  },
  "": 457,
  "name": "Yashima　Gakuen　University",
  "state": "Kanagawa",
  "latitude": 35.458904,
  "longitude": 139.622726,
  "review_rating": 3.42
},
{
  "_id": {
    "$oid": "65badb61301b15f1e5c0c8be"
  },
  "": 458,
  "name": "Institute　of　Information　Security",
  "state": "Kanagawa",
  "latitude": 35.468109,
  "longitude": 139.623535,
  "review_rating": 3.28
},
{
  "_id": {
    "$oid": "65badb61301b15f1e5c0c8bf"
  },
  "": 459,
  "name": "Yokohama　University　of　Pharmacy",
  "state": "Kanagawa",
  "latitude": 35.382626,
  "longitude": 139.49202,
  "review_rating": 3.68,
  "difficulty_rank": "F"
},
{
  "_id": {
    "$oid": "65badb61301b15f1e5c0c8c0"
  },
  "": 460,
  "name": "Azabu　University",
  "state": "Kanagawa",
  "latitude": 35.573708,
  "longitude": 139.392426,
  "review_rating": 3.83,
  "difficulty_rank": "E"
},
{
  "_id": {
    "$oid": "65badb61301b15f1e5c0c8c1"
  },
  "": 461,
  "name": "Kanagawa　Dentaluniversity",
  "state": "Kanagawa",
  "latitude": 35.29361,
  "longitude": 139.665237,
  "review_rating": 3.11,
  "difficulty_rank": "F"
},
{
  "_id": {
    "$oid": "65badb61301b15f1e5c0c8c2"
  },
  "": 462,
  "name": "Kamakura　Women’s　University",
  "state": "Kanagawa",
  "latitude": 35.354252,
  "longitude": 139.538498,
  "review_rating": 3.9,
  "difficulty_rank": "E"
},
{
  "_id": {
    "$oid": "65badb61301b15f1e5c0c8c3"
  },
  "": 463,
  "name": "Shonan　Institute　of　Technology",
  "state": "Kanagawa",
  "latitude": 35.326111,
  "longitude": 139.453232,
  "review_rating": 3.76,
  "difficulty_rank": "F"
},
{
  "_id": {
    "$oid": "65badb61301b15f1e5c0c8c4"
  },
  "": 464,
  "name": "Sagami　Women’s　University",
  "state": "Kanagawa",
  "latitude": 35.533947,
  "longitude": 139.427368,
  "review_rating": 3.76,
  "difficulty_rank": "F"
},
{
  "_id": {
    "$oid": "65badb61301b15f1e5c0c8c5"
  },
  "": 465,
  "name": "Senzoku　Gakuen　College　of　Music",
  "state": "Kanagawa",
  "latitude": 35.594688,
  "longitude": 139.615311,
  "review_rating": 3.86
},
{
  "_id": {
    "$oid": "65badb61301b15f1e5c0c8c6"
  },
  "": 466,
  "name": "St.Marianna　University　School　of　Medicine",
  "state": "Kanagawa",
  "latitude": 35.59956,
  "longitude": 139.547073,
  "review_rating": 3.76,
  "difficulty_rank": "A"
},
{
  "_id": {
    "$oid": "65badb61301b15f1e5c0c8c7"
  },
  "": 467,
  "name": "Kanagawa　Institute of　Technology",
  "state": "Kanagawa",
  "latitude": 35.486244,
  "longitude": 139.343307,
  "review_rating": 3.59,
  "difficulty_rank": "F"
},
{
  "_id": {
    "$oid": "65badb61301b15f1e5c0c8c8"
  },
  "": 468,
  "name": "Showa　University　of　Music",
  "state": "Kanagawa",
  "latitude": 35.600418,
  "longitude": 139.508041,
  "review_rating": 4.06,
  "difficulty_rank": "F"
},
{
  "_id": {
    "$oid": "65badb61301b15f1e5c0c8c9"
  },
  "": 469,
  "name": "Toin　University　of　Yokohama",
  "state": "Kanagawa",
  "latitude": 35.567417,
  "longitude": 139.521179,
  "review_rating": 3.71,
  "difficulty_rank": "F"
},
{
  "_id": {
    "$oid": "65badb61301b15f1e5c0c8ca"
  },
  "": 470,
  "name": "Toyo　Eiwa　University",
  "state": "Kanagawa",
  "latitude": 35.508823,
  "longitude": 139.510101,
  "review_rating": 3.78,
  "difficulty_rank": "F"
},
{
  "_id": {
    "$oid": "65badb61301b15f1e5c0c8cb"
  },
  "": 471,
  "name": "Shoin　University",
  "state": "Kanagawa",
  "latitude": 35.442726,
  "longitude": 139.315689,
  "review_rating": 3.47,
  "difficulty_rank": "F"
},
{
  "_id": {
    "$oid": "65badb61301b15f1e5c0c8cc"
  },
  "": 472,
  "name": "Den-En　Chofu　University",
  "state": "Kanagawa",
  "latitude": 35.595226,
  "longitude": 139.525146,
  "review_rating": 3.64,
  "difficulty_rank": "F"
},
{
  "_id": {
    "$oid": "65badb61301b15f1e5c0c8cd"
  },
  "": 473,
  "name": "Yokohama　University　of　Art　&　Design",
  "state": "Kanagawa",
  "latitude": 35.557827,
  "longitude": 139.497253,
  "review_rating": 3.92,
  "difficulty_rank": "F"
},
{
  "_id": {
    "$oid": "65badb61301b15f1e5c0c8ce"
  },
  "": 474,
  "name": "Japan　Institute　of　The　Moving　Image",
  "state": "Kanagawa",
  "latitude": 35.604919,
  "longitude": 139.507553,
  "review_rating": 3.73,
  "difficulty_rank": "F"
},
{
  "_id": {
    "$oid": "65badb61301b15f1e5c0c8cf"
  },
  "": 475,
  "name": "Yokohama　Soei　University",
  "state": "Kanagawa",
  "latitude": 35.511475,
  "longitude": 139.510056,
  "review_rating": 3.56,
  "difficulty_rank": "F"
},
{
  "_id": {
    "$oid": "65badb61301b15f1e5c0c8d0"
  },
  "": 476,
  "name": "Shonan　University　of　Medical　Sciences",
  "state": "Kanagawa",
  "latitude": 35.437679,
  "longitude": 139.548645,
  "review_rating": 3.72,
  "difficulty_rank": "F"
},
{
  "_id": {
    "$oid": "65badb61301b15f1e5c0c8d1"
  },
  "": 477,
  "name": "SHONAN KAMAKURA UNIVERSITY OF MEDICAL SCIENCES",
  "state": "Kanagawa",
  "latitude": 35.34156,
  "longitude": 139.52774,
  "review_rating": 3.67,
  "difficulty_rank": "F"
},
{
  "_id": {
    "$oid": "65badb61301b15f1e5c0c8d2"
  },
  "": 478,
  "name": "Nagaoka　University",
  "state": "Niigata",
  "latitude": 37.428562,
  "longitude": 138.880157,
  "review_rating": 3.44,
  "difficulty_rank": "E"
},
{
  "_id": {
    "$oid": "65badb61301b15f1e5c0c8d3"
  },
  "": 479,
  "name": "Niigata　University　of　Health　And　Welfare",
  "state": "Niigata",
  "latitude": 37.9664,
  "longitude": 139.188843,
  "review_rating": 3.89,
  "difficulty_rank": "F"
},
{
  "_id": {
    "$oid": "65badb61301b15f1e5c0c8d4"
  },
  "": 480,
  "name": "Niigata　Seiryo　University",
  "state": "Niigata",
  "latitude": 37.921284,
  "longitude": 139.025436,
  "review_rating": 3.94,
  "difficulty_rank": "E"
},
{
  "_id": {
    "$oid": "65badb61301b15f1e5c0c8d5"
  },
  "": 481,
  "name": "Niigata　Institute　of　Technology",
  "state": "Niigata",
  "latitude": 37.338867,
  "longitude": 138.576767,
  "review_rating": 3.62,
  "difficulty_rank": "F"
},
{
  "_id": {
    "$oid": "65badb61301b15f1e5c0c8d6"
  },
  "": 482,
  "name": "Niigata　University　of　Management",
  "state": "Niigata",
  "latitude": 37.672485,
  "longitude": 139.065048,
  "review_rating": 3.73,
  "difficulty_rank": "F"
},
{
  "_id": {
    "$oid": "65badb61301b15f1e5c0c8d7"
  },
  "": 483,
  "name": "Niigata　University　of　International　And　Information　Studies",
  "state": "Niigata",
  "latitude": 37.816799,
  "longitude": 138.899292,
  "review_rating": 3.69,
  "difficulty_rank": "D"
},
{
  "_id": {
    "$oid": "65badb61301b15f1e5c0c8d8"
  },
  "": 484,
  "name": "Keiwa　College",
  "state": "Niigata",
  "latitude": 37.953205,
  "longitude": 139.2901,
  "review_rating": 3.45,
  "difficulty_rank": "F"
},
{
  "_id": {
    "$oid": "65badb61301b15f1e5c0c8d9"
  },
  "": 485,
  "name": "Niigata　University　of　Pharmacy　and　Applied　Life　Sciences",
  "state": "Niigata",
  "latitude": 37.77475,
  "longitude": 139.12204,
  "review_rating": 3.51,
  "difficulty_rank": "F"
},
{
  "_id": {
    "$oid": "65badb61301b15f1e5c0c8da"
  },
  "": 486,
  "name": "International　University　of　Japan",
  "state": "Niigata",
  "latitude": 37.1479,
  "longitude": 138.948013,
  "review_rating": 3
},
{
  "_id": {
    "$oid": "65badb61301b15f1e5c0c8db"
  },
  "": 487,
  "name": "Niigata　Sangyo　University",
  "state": "Niigata",
  "latitude": 37.337311,
  "longitude": 138.593201,
  "review_rating": 3.73,
  "difficulty_rank": "F"
},
{
  "_id": {
    "$oid": "65badb61301b15f1e5c0c8dc"
  },
  "": 488,
  "name": "Graduate　Institute　For　Entrepreneurial　Studies",
  "state": "Niigata",
  "latitude": 37.907841,
  "longitude": 139.061737
},
{
  "_id": {
    "$oid": "65badb61301b15f1e5c0c8dd"
  },
  "": 489,
  "name": "Niigata　University　of　Rehabilitation",
  "state": "Niigata",
  "latitude": 38.185974,
  "longitude": 139.439468,
  "review_rating": 3.18,
  "difficulty_rank": "F"
},
{
  "_id": {
    "$oid": "65badb61301b15f1e5c0c8de"
  },
  "": 490,
  "name": "Niigata　Agro-Food　University",
  "state": "Niigata",
  "latitude": 37.968521,
  "longitude": 139.194901,
  "review_rating": 2.75,
  "difficulty_rank": "F"
},
{
  "_id": {
    "$oid": "65badb61301b15f1e5c0c8df"
  },
  "": 491,
  "name": "Kaishi Professional University",
  "state": "Niigata",
  "latitude": 37.897717,
  "longitude": 139.067429,
  "review_rating": 4,
  "difficulty_rank": "F"
},
{
  "_id": {
    "$oid": "65badb61301b15f1e5c0c8e0"
  },
  "": 492,
  "name": "Nagaoka Sutoku University",
  "state": "Niigata",
  "latitude": 37.425255,
  "longitude": 138.773346,
  "review_rating": 3.75,
  "difficulty_rank": "F"
},
{
  "_id": {
    "$oid": "65badb61301b15f1e5c0c8e1"
  },
  "": 493,
  "name": "Takaoka　University　of　Law",
  "state": "Toyama",
  "latitude": 36.66967,
  "longitude": 137.001297,
  "review_rating": 3.43,
  "difficulty_rank": "F"
},
{
  "_id": {
    "$oid": "65badb61301b15f1e5c0c8e2"
  },
  "": 494,
  "name": "Toyama　University　of　International　Studies",
  "state": "Toyama",
  "latitude": 36.601566,
  "longitude": 137.273621,
  "review_rating": 3.7,
  "difficulty_rank": "F"
},
{
  "_id": {
    "$oid": "65badb61301b15f1e5c0c8e3"
  },
  "": 495,
  "name": "Toho　Gakuen　Graduate　School",
  "state": "Toyama",
  "latitude": 36.717968,
  "longitude": 137.165161,
  "review_rating": 5
},
{
  "_id": {
    "$oid": "65badb61301b15f1e5c0c8e4"
  },
  "": 496,
  "name": "Kanazawa　Seiryo　University",
  "state": "Ishikawa",
  "latitude": 36.583309,
  "longitude": 136.68222,
  "review_rating": 3.77,
  "difficulty_rank": "F"
},
{
  "_id": {
    "$oid": "65badb61301b15f1e5c0c8e5"
  },
  "": 497,
  "name": "Kanazawa　Institute　of　Technology",
  "state": "Ishikawa",
  "latitude": 36.529015,
  "longitude": 136.627518,
  "review_rating": 3.69,
  "difficulty_rank": "F"
},
{
  "_id": {
    "$oid": "65badb61301b15f1e5c0c8e6"
  },
  "": 498,
  "name": "Kanazawa　Medical　University",
  "state": "Ishikawa",
  "latitude": 36.657558,
  "longitude": 136.647263,
  "review_rating": 3.9,
  "difficulty_rank": "C"
},
{
  "_id": {
    "$oid": "65badb61301b15f1e5c0c8e7"
  },
  "": 499,
  "name": "Hokuriku　University",
  "state": "Ishikawa",
  "latitude": 36.524445,
  "longitude": 136.707336,
  "review_rating": 3.46,
  "difficulty_rank": "F"
},
{
  "_id": {
    "$oid": "65badb61301b15f1e5c0c8e8"
  },
  "": 500,
  "name": "Kanazawa　Gakuin　University",
  "state": "Ishikawa",
  "latitude": 36.515697,
  "longitude": 136.698029,
  "review_rating": 3.4,
  "difficulty_rank": "F"
},
{
  "_id": {
    "$oid": "65badb61301b15f1e5c0c8e9"
  },
  "": 501,
  "name": "Kinjo　University",
  "state": "Ishikawa",
  "latitude": 36.508892,
  "longitude": 136.529785,
  "review_rating": 3.84,
  "difficulty_rank": "F"
},
{
  "_id": {
    "$oid": "65badb61301b15f1e5c0c8ea"
  },
  "": 502,
  "name": "Hokurikugakuin　University",
  "state": "Ishikawa",
  "latitude": 36.517262,
  "longitude": 136.670761,
  "review_rating": 3.81,
  "difficulty_rank": "F"
},
{
  "_id": {
    "$oid": "65badb61301b15f1e5c0c8eb"
  },
  "": 503,
  "name": "Kanazawa Professional University of Food Management",
  "state": "Ishikawa",
  "latitude": 36.543907,
  "longitude": 136.586166,
  "difficulty_rank": "F"
},
{
  "_id": {
    "$oid": "65badb61301b15f1e5c0c8ec"
  },
  "": 504,
  "name": "Fukui　University　of　Technology",
  "state": "Fukui",
  "latitude": 36.068718,
  "longitude": 136.196365,
  "review_rating": 3.59,
  "difficulty_rank": "E"
},
{
  "_id": {
    "$oid": "65badb61301b15f1e5c0c8ed"
  },
  "": 505,
  "name": "Jin-Ai　University",
  "state": "Fukui",
  "latitude": 35.891541,
  "longitude": 136.211166,
  "review_rating": 3.85,
  "difficulty_rank": "F"
},
{
  "_id": {
    "$oid": "65badb61301b15f1e5c0c8ee"
  },
  "": 506,
  "name": "Fukui　Health　Science　University",
  "state": "Fukui",
  "latitude": 36.130241,
  "longitude": 136.165817,
  "review_rating": 3.56,
  "difficulty_rank": "F"
},
{
  "_id": {
    "$oid": "65badb61301b15f1e5c0c8ef"
  },
  "": 507,
  "name": "Yamanashi　Gakuin　University",
  "state": "Yamanashi",
  "latitude": 35.657879,
  "longitude": 138.600906,
  "review_rating": 3.74,
  "difficulty_rank": "F"
},
{
  "_id": {
    "$oid": "65badb61301b15f1e5c0c8f0"
  },
  "": 508,
  "name": "Minobusan　University",
  "state": "Yamanashi",
  "latitude": 35.383202,
  "longitude": 138.428558,
  "review_rating": 5,
  "difficulty_rank": "F"
},
{
  "_id": {
    "$oid": "65badb61301b15f1e5c0c8f1"
  },
  "": 509,
  "name": "Yamanashi-Eiwa　College",
  "state": "Yamanashi",
  "latitude": 35.661758,
  "longitude": 138.613174,
  "review_rating": 3.66,
  "difficulty_rank": "F"
},
{
  "_id": {
    "$oid": "65badb61301b15f1e5c0c8f2"
  },
  "": 510,
  "name": "Health　Science　University",
  "state": "Yamanashi",
  "latitude": 35.464031,
  "longitude": 138.744141,
  "review_rating": 3.58,
  "difficulty_rank": "F"
},
{
  "_id": {
    "$oid": "65badb61301b15f1e5c0c8f3"
  },
  "": 511,
  "name": "Matsumoto　Dental　University",
  "state": "Nagano",
  "latitude": 36.127342,
  "longitude": 137.939728,
  "review_rating": 3.1,
  "difficulty_rank": "F"
},
{
  "_id": {
    "$oid": "65badb61301b15f1e5c0c8f4"
  },
  "": 512,
  "name": "Matsumoto　University",
  "state": "Nagano",
  "latitude": 36.220024,
  "longitude": 137.911194,
  "review_rating": 3.91,
  "difficulty_rank": "E"
},
{
  "_id": {
    "$oid": "65badb61301b15f1e5c0c8f5"
  },
  "": 513,
  "name": "Seisen　Jogakuin　College",
  "state": "Nagano",
  "latitude": 36.685642,
  "longitude": 138.23291,
  "review_rating": 4.1,
  "difficulty_rank": "F"
},
{
  "_id": {
    "$oid": "65badb61301b15f1e5c0c8f6"
  },
  "": 514,
  "name": "Saku　University",
  "state": "Nagano",
  "latitude": 36.265114,
  "longitude": 138.463028,
  "review_rating": 3.89,
  "difficulty_rank": "F"
},
{
  "_id": {
    "$oid": "65badb61301b15f1e5c0c8f7"
  },
  "": 515,
  "name": "Nagano　University　of　Health　And　Medicine",
  "state": "Nagano",
  "latitude": 36.593323,
  "longitude": 138.145218,
  "review_rating": 3.87,
  "difficulty_rank": "E"
},
{
  "_id": {
    "$oid": "65badb61301b15f1e5c0c8f8"
  },
  "": 516,
  "name": "MATSUMOTO COLLEGE OF NURSING",
  "state": "Nagano",
  "latitude": 36.174709,
  "longitude": 137.93544,
  "review_rating": 3,
  "difficulty_rank": "F"
},
{
  "_id": {
    "$oid": "65badb61301b15f1e5c0c8f9"
  },
  "": 517,
  "name": "Chukyo　Gakuin　University",
  "state": "Gifu",
  "latitude": 35.476894,
  "longitude": 137.485397,
  "review_rating": 3.64,
  "difficulty_rank": "F"
},
{
  "_id": {
    "$oid": "65badb61301b15f1e5c0c8fa"
  },
  "": 518,
  "name": "Gifu　Kyoritsu　University",
  "state": "Gifu",
  "latitude": 35.39423,
  "longitude": 136.619125,
  "review_rating": 3.46,
  "difficulty_rank": "F"
},
{
  "_id": {
    "$oid": "65badb61301b15f1e5c0c8fb"
  },
  "": 519,
  "name": "Gifu　Women’s　University",
  "state": "Gifu",
  "latitude": 35.487743,
  "longitude": 136.806992,
  "review_rating": 3.77,
  "difficulty_rank": "F"
},
{
  "_id": {
    "$oid": "65badb61301b15f1e5c0c8fc"
  },
  "": 520,
  "name": "Asahi　University",
  "state": "Gifu",
  "latitude": 35.382084,
  "longitude": 136.69072,
  "review_rating": 3.76,
  "difficulty_rank": "E"
},
{
  "_id": {
    "$oid": "65badb61301b15f1e5c0c8fd"
  },
  "": 521,
  "name": "Gifu　Shotoku　Gakuen　University",
  "state": "Gifu",
  "latitude": 35.361855,
  "longitude": 136.706558,
  "review_rating": 4.09,
  "difficulty_rank": "E"
},
{
  "_id": {
    "$oid": "65badb61301b15f1e5c0c8fe"
  },
  "": 522,
  "name": "Tokai　Gakuin　University",
  "state": "Gifu",
  "latitude": 35.424854,
  "longitude": 136.82048,
  "review_rating": 3.52,
  "difficulty_rank": "F"
},
{
  "_id": {
    "$oid": "65badb61301b15f1e5c0c8ff"
  },
  "": 523,
  "name": "Chubu　Gakuin　University",
  "state": "Gifu",
  "latitude": 35.45853,
  "longitude": 136.897781,
  "review_rating": 3.86,
  "difficulty_rank": "F"
},
{
  "_id": {
    "$oid": "65badb61301b15f1e5c0c900"
  },
  "": 524,
  "name": "Gifu　University　of　Medical　Science",
  "state": "Gifu",
  "latitude": 35.490181,
  "longitude": 136.948273,
  "review_rating": 3.79,
  "difficulty_rank": "E"
},
{
  "_id": {
    "$oid": "65badb61301b15f1e5c0c901"
  },
  "": 525,
  "name": "Gifu University of Health Sciences",
  "state": "Gifu",
  "latitude": 35.38459,
  "longitude": 136.739914,
  "review_rating": 3.91,
  "difficulty_rank": "F"
},
{
  "_id": {
    "$oid": "65badb61301b15f1e5c0c902"
  },
  "": 526,
  "name": "The　Graduate　School　For　The　Creation　of　New　Photonics　Industries",
  "state": "Shizuoka",
  "latitude": 34.776619,
  "longitude": 137.630966
},
{
  "_id": {
    "$oid": "65badb61301b15f1e5c0c903"
  },
  "": 527,
  "name": "Shizuoka　University　of　Welfare",
  "state": "Shizuoka",
  "latitude": 34.829826,
  "longitude": 138.296936,
  "review_rating": 3.89,
  "difficulty_rank": "F"
},
{
  "_id": {
    "$oid": "65badb61301b15f1e5c0c904"
  },
  "": 528,
  "name": "Hamamatsu　Gakuin　University",
  "state": "Shizuoka",
  "latitude": 34.719769,
  "longitude": 137.713333,
  "review_rating": 3.93,
  "difficulty_rank": "F"
},
{
  "_id": {
    "$oid": "65badb61301b15f1e5c0c905"
  },
  "": 529,
  "name": "Shizuoka　Eiwa　Gakuin　University",
  "state": "Shizuoka",
  "latitude": 34.982883,
  "longitude": 138.433868,
  "review_rating": 3.54,
  "difficulty_rank": "F"
},
{
  "_id": {
    "$oid": "65badb61301b15f1e5c0c906"
  },
  "": 530,
  "name": "Tokoha　University",
  "state": "Shizuoka",
  "latitude": 35.004887,
  "longitude": 138.436478,
  "review_rating": 3.77,
  "difficulty_rank": "F"
},
{
  "_id": {
    "$oid": "65badb61301b15f1e5c0c907"
  },
  "": 531,
  "name": "Shizuoka　Institute　of　Science　And　Technology",
  "state": "Shizuoka",
  "latitude": 34.73632,
  "longitude": 137.957748,
  "review_rating": 3.59,
  "difficulty_rank": "E"
},
{
  "_id": {
    "$oid": "65badb61301b15f1e5c0c908"
  },
  "": 532,
  "name": "Seirei　Christopher　University",
  "state": "Shizuoka",
  "latitude": 34.791798,
  "longitude": 137.689636,
  "review_rating": 4,
  "difficulty_rank": "F"
},
{
  "_id": {
    "$oid": "65badb61301b15f1e5c0c909"
  },
  "": 533,
  "name": "Shizuoka　Sangyo　University",
  "state": "Shizuoka",
  "latitude": 34.861412,
  "longitude": 138.229004,
  "review_rating": 3.64,
  "difficulty_rank": "F"
},
{
  "_id": {
    "$oid": "65badb61301b15f1e5c0c90a"
  },
  "": 534,
  "name": "Aichi　University　of　Technology",
  "state": "Aichi",
  "latitude": 34.832626,
  "longitude": 137.19342,
  "review_rating": 3.5,
  "difficulty_rank": "F"
},
{
  "_id": {
    "$oid": "65badb61301b15f1e5c0c90b"
  },
  "": 535,
  "name": "Nagoya　Sangyo　University",
  "state": "Aichi",
  "latitude": 35.21994,
  "longitude": 137.031418,
  "review_rating": 3.63,
  "difficulty_rank": "F"
},
{
  "_id": {
    "$oid": "65badb61301b15f1e5c0c90c"
  },
  "": 536,
  "name": "University　of　Human　Environments",
  "state": "Aichi",
  "latitude": 34.897923,
  "longitude": 137.264633,
  "review_rating": 3.58,
  "difficulty_rank": "E"
},
{
  "_id": {
    "$oid": "65badb61301b15f1e5c0c90d"
  },
  "": 537,
  "name": "Nagoya　Bunri　University",
  "state": "Aichi",
  "latitude": 35.248829,
  "longitude": 136.789261,
  "review_rating": 3.68,
  "difficulty_rank": "F"
},
{
  "_id": {
    "$oid": "65badb61301b15f1e5c0c90e"
  },
  "": 538,
  "name": "Aichi　Mizuho　College",
  "state": "Aichi",
  "latitude": 35.127125,
  "longitude": 136.921875,
  "review_rating": 3.46,
  "difficulty_rank": "F"
},
{
  "_id": {
    "$oid": "65badb61301b15f1e5c0c90f"
  },
  "": 539,
  "name": "Aichi　Gakuin　University",
  "state": "Aichi",
  "latitude": 35.158417,
  "longitude": 137.042679,
  "review_rating": 3.83,
  "difficulty_rank": "E"
},
{
  "_id": {
    "$oid": "65badb61301b15f1e5c0c910"
  },
  "": 540,
  "name": "Aichi　Institute　of　Technology",
  "state": "Aichi",
  "latitude": 35.184185,
  "longitude": 137.111893,
  "review_rating": 3.67,
  "difficulty_rank": "D"
},
{
  "_id": {
    "$oid": "65badb61301b15f1e5c0c911"
  },
  "": 541,
  "name": "Kinjogakuin　University",
  "state": "Aichi",
  "latitude": 35.208553,
  "longitude": 136.99321,
  "review_rating": 4.02,
  "difficulty_rank": "E"
},
{
  "_id": {
    "$oid": "65badb61301b15f1e5c0c912"
  },
  "": 542,
  "name": "Sugiyama　Jogakuen　University",
  "state": "Aichi",
  "latitude": 35.159889,
  "longitude": 136.987167,
  "review_rating": 3.98,
  "difficulty_rank": "E"
},
{
  "_id": {
    "$oid": "65badb61301b15f1e5c0c913"
  },
  "": 543,
  "name": "Daido　University",
  "state": "Aichi",
  "latitude": 35.078518,
  "longitude": 136.905609,
  "review_rating": 3.71,
  "difficulty_rank": "E"
},
{
  "_id": {
    "$oid": "65badb61301b15f1e5c0c914"
  },
  "": 544,
  "name": "Chukyo　University",
  "state": "Aichi",
  "latitude": 35.138783,
  "longitude": 136.965393,
  "review_rating": 3.81,
  "difficulty_rank": "C"
},
{
  "_id": {
    "$oid": "65badb61301b15f1e5c0c915"
  },
  "": 545,
  "name": "Doho　University",
  "state": "Aichi",
  "latitude": 35.163673,
  "longitude": 136.843185,
  "review_rating": 3.62,
  "difficulty_rank": "F"
},
{
  "_id": {
    "$oid": "65badb61301b15f1e5c0c916"
  },
  "": 546,
  "name": "Nagoya　Gakuin　University",
  "state": "Aichi",
  "latitude": 35.128548,
  "longitude": 136.89859,
  "review_rating": 3.6,
  "difficulty_rank": "E"
},
{
  "_id": {
    "$oid": "65badb61301b15f1e5c0c917"
  },
  "": 547,
  "name": "Nagoya　University　of　Commerce　&　Business",
  "state": "Aichi",
  "latitude": 35.147362,
  "longitude": 137.082047,
  "review_rating": 3.37,
  "difficulty_rank": "F"
},
{
  "_id": {
    "$oid": "65badb61301b15f1e5c0c918"
  },
  "": 548,
  "name": "Nagoya　Women’s　University",
  "state": "Aichi",
  "latitude": 35.131889,
  "longitude": 136.938492,
  "review_rating": 3.79,
  "difficulty_rank": "E"
},
{
  "_id": {
    "$oid": "65badb61301b15f1e5c0c919"
  },
  "": 549,
  "name": "Nanzan　University",
  "state": "Aichi",
  "latitude": 35.14901,
  "longitude": 136.96315,
  "review_rating": 3.96,
  "difficulty_rank": "C"
},
{
  "_id": {
    "$oid": "65badb61301b15f1e5c0c91a"
  },
  "": 550,
  "name": "Nihon　Fukushi　University",
  "state": "Aichi",
  "latitude": 34.783028,
  "longitude": 136.872833,
  "review_rating": 3.76,
  "difficulty_rank": "F"
},
{
  "_id": {
    "$oid": "65badb61301b15f1e5c0c91b"
  },
  "": 551,
  "name": "Meijo　University",
  "state": "Aichi",
  "latitude": 35.135921,
  "longitude": 136.976532,
  "review_rating": 3.84,
  "difficulty_rank": "C"
},
{
  "_id": {
    "$oid": "65badb61301b15f1e5c0c91c"
  },
  "": 552,
  "name": "Nagoya　College　of　Music",
  "state": "Aichi",
  "latitude": 35.163673,
  "longitude": 136.843185,
  "review_rating": 3.86,
  "difficulty_rank": "E"
},
{
  "_id": {
    "$oid": "65badb61301b15f1e5c0c91d"
  },
  "": 553,
  "name": "Toyota　Technological　Institute",
  "state": "Aichi",
  "latitude": 35.106468,
  "longitude": 136.982498,
  "review_rating": 3.76,
  "difficulty_rank": "B"
},
{
  "_id": {
    "$oid": "65badb61301b15f1e5c0c91e"
  },
  "": 554,
  "name": "Nagoya　University　of　Foreign　Studies",
  "state": "Aichi",
  "latitude": 35.155373,
  "longitude": 137.040131,
  "review_rating": 3.89,
  "difficulty_rank": "C"
},
{
  "_id": {
    "$oid": "65badb61301b15f1e5c0c91f"
  },
  "": 555,
  "name": "Nagoya　Zokei　University　of　Art　;　Design",
  "state": "Aichi",
  "latitude": 35.189964,
  "longitude": 136.905731,
  "review_rating": 3.65,
  "difficulty_rank": "E"
},
{
  "_id": {
    "$oid": "65badb61301b15f1e5c0c920"
  },
  "": 556,
  "name": "Aichi　Sangyo　University",
  "state": "Aichi",
  "latitude": 34.919106,
  "longitude": 137.219589,
  "review_rating": 3.8,
  "difficulty_rank": "F"
},
{
  "_id": {
    "$oid": "65badb61301b15f1e5c0c921"
  },
  "": 557,
  "name": "Tokai　Gakuen　University",
  "state": "Aichi",
  "latitude": 35.126869,
  "longitude": 137.098785,
  "review_rating": 3.56,
  "difficulty_rank": "F"
},
{
  "_id": {
    "$oid": "65badb61301b15f1e5c0c922"
  },
  "": 558,
  "name": "Toyohashi　Sozo　University",
  "state": "Aichi",
  "latitude": 34.776573,
  "longitude": 137.409988,
  "review_rating": 3.54,
  "difficulty_rank": "F"
},
{
  "_id": {
    "$oid": "65badb61301b15f1e5c0c923"
  },
  "": 559,
  "name": "Aichi　Toho　University",
  "state": "Aichi",
  "latitude": 35.170525,
  "longitude": 136.986328,
  "review_rating": 3.54,
  "difficulty_rank": "F"
},
{
  "_id": {
    "$oid": "65badb61301b15f1e5c0c924"
  },
  "": 560,
  "name": "Seijoh　University",
  "state": "Aichi",
  "latitude": 35.033436,
  "longitude": 136.900803,
  "review_rating": 3.75,
  "difficulty_rank": "F"
},
{
  "_id": {
    "$oid": "65badb61301b15f1e5c0c925"
  },
  "": 561,
  "name": "Aichi　Bunkyo　University",
  "state": "Aichi",
  "latitude": 35.300236,
  "longitude": 137.007355,
  "review_rating": 3.55,
  "difficulty_rank": "F"
},
{
  "_id": {
    "$oid": "65badb61301b15f1e5c0c926"
  },
  "": 562,
  "name": "Ohkagakuen　University",
  "state": "Aichi",
  "latitude": 35.05722,
  "longitude": 136.973251,
  "review_rating": 4.21,
  "difficulty_rank": "F"
},
{
  "_id": {
    "$oid": "65badb61301b15f1e5c0c927"
  },
  "": 563,
  "name": "Aichi　University",
  "state": "Aichi",
  "latitude": 35.174255,
  "longitude": 136.927292,
  "review_rating": 3.83,
  "difficulty_rank": "D"
},
{
  "_id": {
    "$oid": "65badb61301b15f1e5c0c928"
  },
  "": 564,
  "name": "Aichi　Gakusen　University",
  "state": "Aichi",
  "latitude": 34.972233,
  "longitude": 137.143311,
  "review_rating": 3.41,
  "difficulty_rank": "F"
},
{
  "_id": {
    "$oid": "65badb61301b15f1e5c0c929"
  },
  "": 565,
  "name": "Shigakkan　University",
  "state": "Aichi",
  "latitude": 35.031044,
  "longitude": 136.972305,
  "review_rating": 3.58,
  "difficulty_rank": "E"
},
{
  "_id": {
    "$oid": "65badb61301b15f1e5c0c92a"
  },
  "": 566,
  "name": "Chubu　University",
  "state": "Aichi",
  "latitude": 35.274693,
  "longitude": 137.015121,
  "review_rating": 3.73,
  "difficulty_rank": "E"
},
{
  "_id": {
    "$oid": "65badb61301b15f1e5c0c92b"
  },
  "": 567,
  "name": "Fujita　Health　University",
  "state": "Aichi",
  "latitude": 35.070999,
  "longitude": 137.001389,
  "review_rating": 3.73,
  "difficulty_rank": "C"
},
{
  "_id": {
    "$oid": "65badb61301b15f1e5c0c92c"
  },
  "": 568,
  "name": "Nagoya　University　of　The　Arts",
  "state": "Aichi",
  "latitude": 35.256161,
  "longitude": 136.880783,
  "review_rating": 3.72,
  "difficulty_rank": "F"
},
{
  "_id": {
    "$oid": "65badb61301b15f1e5c0c92d"
  },
  "": 569,
  "name": "Aichi　Medical　University",
  "state": "Aichi",
  "latitude": 35.19241,
  "longitude": 137.048386,
  "review_rating": 3.76,
  "difficulty_rank": "B"
},
{
  "_id": {
    "$oid": "65badb61301b15f1e5c0c92e"
  },
  "": 570,
  "name": "Aichi　Shukutoku　University",
  "state": "Aichi",
  "latitude": 35.15873,
  "longitude": 137.031342,
  "review_rating": 3.84,
  "difficulty_rank": "D"
},
{
  "_id": {
    "$oid": "65badb61301b15f1e5c0c92f"
  },
  "": 571,
  "name": "Nagoya　University　of　Economics",
  "state": "Aichi",
  "latitude": 35.319664,
  "longitude": 136.953247,
  "review_rating": 3.38,
  "difficulty_rank": "F"
},
{
  "_id": {
    "$oid": "65badb61301b15f1e5c0c930"
  },
  "": 572,
  "name": "Nagoya　University　of　Arts　And　Sciences",
  "state": "Aichi",
  "latitude": 35.155373,
  "longitude": 137.040131,
  "review_rating": 4.16,
  "difficulty_rank": "C"
},
{
  "_id": {
    "$oid": "65badb61301b15f1e5c0c931"
  },
  "": 573,
  "name": "Japanese　Red　Cross　Toyota　College　of　Nursing",
  "state": "Aichi",
  "latitude": 35.100468,
  "longitude": 137.120712,
  "review_rating": 3.88,
  "difficulty_rank": "E"
},
{
  "_id": {
    "$oid": "65badb61301b15f1e5c0c932"
  },
  "": 574,
  "name": "Shubun　University",
  "state": "Aichi",
  "latitude": 35.300484,
  "longitude": 136.781296,
  "review_rating": 3.47,
  "difficulty_rank": "F"
},
{
  "_id": {
    "$oid": "65badb61301b15f1e5c0c933"
  },
  "": 575,
  "name": "Okazaki　Women’s　University",
  "state": "Aichi",
  "latitude": 34.954697,
  "longitude": 137.185226,
  "review_rating": 4.1,
  "difficulty_rank": "F"
},
{
  "_id": {
    "$oid": "65badb61301b15f1e5c0c934"
  },
  "": 576,
  "name": "Ichinomiya　Kenshin　College",
  "state": "Aichi",
  "latitude": 35.316635,
  "longitude": 136.811523,
  "review_rating": 4,
  "difficulty_rank": "E"
},
{
  "_id": {
    "$oid": "65badb61301b15f1e5c0c935"
  },
  "": 577,
  "name": "Nagoya Ryujo Women's University",
  "state": "Aichi",
  "latitude": 35.146511,
  "longitude": 136.932465,
  "review_rating": 4.12,
  "difficulty_rank": "F"
},
{
  "_id": {
    "$oid": "65badb61301b15f1e5c0c936"
  },
  "": 578,
  "name": "International Professional University of Technology in Nagoya",
  "state": "Aichi",
  "latitude": 35.16843,
  "longitude": 136.8862,
  "review_rating": 5
},
{
  "_id": {
    "$oid": "65badb61301b15f1e5c0c937"
  },
  "": 579,
  "name": "Yokkaichi　University",
  "state": "Mie",
  "latitude": 35.022343,
  "longitude": 136.605225,
  "review_rating": 3.65,
  "difficulty_rank": "F"
},
{
  "_id": {
    "$oid": "65badb61301b15f1e5c0c938"
  },
  "": 580,
  "name": "Kogakkan　University",
  "state": "Mie",
  "latitude": 34.488365,
  "longitude": 136.726547,
  "review_rating": 3.9,
  "difficulty_rank": "E"
},
{
  "_id": {
    "$oid": "65badb61301b15f1e5c0c939"
  },
  "": 581,
  "name": "Suzuka　University　of Medical　Science",
  "state": "Mie",
  "latitude": 34.858315,
  "longitude": 136.59938,
  "review_rating": 3.59,
  "difficulty_rank": "E"
},
{
  "_id": {
    "$oid": "65badb61301b15f1e5c0c93a"
  },
  "": 582,
  "name": "Suzuka　University",
  "state": "Mie",
  "latitude": 34.8144,
  "longitude": 136.534454,
  "review_rating": 3.51,
  "difficulty_rank": "F"
},
{
  "_id": {
    "$oid": "65badb61301b15f1e5c0c93b"
  },
  "": 583,
  "name": "Yokkaichi　Nursing　And　Medical　Care　University",
  "state": "Mie",
  "latitude": 35.022343,
  "longitude": 136.605225,
  "review_rating": 3.76,
  "difficulty_rank": "E"
},
{
  "_id": {
    "$oid": "65badb61301b15f1e5c0c93c"
  },
  "": 584,
  "name": "Seian　University　of　Art　And　Design",
  "state": "Shiga",
  "latitude": 35.107018,
  "longitude": 135.902008,
  "review_rating": 3.75,
  "difficulty_rank": "C"
},
{
  "_id": {
    "$oid": "65badb61301b15f1e5c0c93d"
  },
  "": 585,
  "name": "Seisen　University",
  "state": "Shiga",
  "latitude": 35.20517,
  "longitude": 136.204422,
  "review_rating": 3.39,
  "difficulty_rank": "F"
},
{
  "_id": {
    "$oid": "65badb61301b15f1e5c0c93e"
  },
  "": 586,
  "name": "Nagahama　Institute　of　Bio-Science　And　Technology",
  "state": "Shiga",
  "latitude": 35.356911,
  "longitude": 136.28038,
  "review_rating": 3.76,
  "difficulty_rank": "E"
},
{
  "_id": {
    "$oid": "65badb61301b15f1e5c0c93f"
  },
  "": 587,
  "name": "Biwako　Seikei　Sport　College",
  "state": "Shiga",
  "latitude": 35.227333,
  "longitude": 135.94754,
  "review_rating": 3.88,
  "difficulty_rank": "F"
},
{
  "_id": {
    "$oid": "65badb61301b15f1e5c0c940"
  },
  "": 588,
  "name": "Biwako-Gakuin　University",
  "state": "Shiga",
  "latitude": 35.088188,
  "longitude": 136.184052,
  "review_rating": 3.63,
  "difficulty_rank": "F"
},
{
  "_id": {
    "$oid": "65badb61301b15f1e5c0c941"
  },
  "": 589,
  "name": "Biwako Professional University of Rehabilitation",
  "state": "Shiga",
  "latitude": 35.132339,
  "longitude": 136.275558,
  "review_rating": 5,
  "difficulty_rank": "F"
},
{
  "_id": {
    "$oid": "65badb61301b15f1e5c0c942"
  },
  "": 590,
  "name": "Heian Jogakuin st.Agnes University",
  "state": "Kyoto",
  "latitude": 35.019299,
  "longitude": 135.757797,
  "review_rating": 3.85,
  "difficulty_rank": "F"
},
{
  "_id": {
    "$oid": "65badb61301b15f1e5c0c943"
  },
  "": 591,
  "name": "Otani　University",
  "state": "Kyoto",
  "latitude": 35.042549,
  "longitude": 135.759064,
  "review_rating": 3.88,
  "difficulty_rank": "F"
},
{
  "_id": {
    "$oid": "65badb61301b15f1e5c0c944"
  },
  "": 592,
  "name": "Kyoto　University　of　Foreign　Studies",
  "state": "Kyoto",
  "latitude": 35.004147,
  "longitude": 135.718948,
  "review_rating": 3.81,
  "difficulty_rank": "D"
},
{
  "_id": {
    "$oid": "65badb61301b15f1e5c0c945"
  },
  "": 593,
  "name": "Kyoto　Sangyo　University",
  "state": "Kyoto",
  "latitude": 35.066345,
  "longitude": 135.754211,
  "review_rating": 3.81,
  "difficulty_rank": "D"
},
{
  "_id": {
    "$oid": "65badb61301b15f1e5c0c946"
  },
  "": 594,
  "name": "Kyoto　Women’s　University",
  "state": "Kyoto",
  "latitude": 34.989666,
  "longitude": 135.778442,
  "review_rating": 3.91,
  "difficulty_rank": "D"
},
{
  "_id": {
    "$oid": "65badb61301b15f1e5c0c947"
  },
  "": 595,
  "name": "Kyoto　　　　Pharmaceutical　　University",
  "state": "Kyoto",
  "latitude": 34.990833,
  "longitude": 135.809723,
  "review_rating": 3.97,
  "difficulty_rank": "C"
},
{
  "_id": {
    "$oid": "65badb61301b15f1e5c0c948"
  },
  "": 596,
  "name": "Kyoto　Koka　Women’s　University",
  "state": "Kyoto",
  "latitude": 34.996956,
  "longitude": 135.718384,
  "review_rating": 3.79,
  "difficulty_rank": "F"
},
{
  "_id": {
    "$oid": "65badb61301b15f1e5c0c949"
  },
  "": 597,
  "name": "Shuchiin　University",
  "state": "Kyoto",
  "latitude": 34.912777,
  "longitude": 135.766678,
  "review_rating": 3.97,
  "difficulty_rank": "F"
},
{
  "_id": {
    "$oid": "65badb61301b15f1e5c0c94a"
  },
  "": 598,
  "name": "Kyoto　Tachibana　University",
  "state": "Kyoto",
  "latitude": 34.968323,
  "longitude": 135.82515,
  "review_rating": 3.94,
  "difficulty_rank": "D"
},
{
  "_id": {
    "$oid": "65badb61301b15f1e5c0c94b"
  },
  "": 599,
  "name": "Doshisha　University",
  "state": "Kyoto",
  "latitude": 34.968323,
  "longitude": 135.82515,
  "review_rating": 4.06,
  "difficulty_rank": "B"
},
{
  "_id": {
    "$oid": "65badb61301b15f1e5c0c94c"
  },
  "": 600,
  "name": "Doshisha　Women’s　College　of　Liberal　Arts",
  "state": "Kyoto",
  "latitude": 34.80452,
  "longitude": 135.772675,
  "review_rating": 4.15,
  "difficulty_rank": "D"
},
{
  "_id": {
    "$oid": "65badb61301b15f1e5c0c94d"
  },
  "": 601,
  "name": "Kyoto　Notre　Dame　University",
  "state": "Kyoto",
  "latitude": 35.051197,
  "longitude": 135.770004,
  "review_rating": 3.98,
  "difficulty_rank": "F"
},
{
  "_id": {
    "$oid": "65badb61301b15f1e5c0c94e"
  },
  "": 602,
  "name": "Hanazono　University",
  "state": "Kyoto",
  "latitude": 35.01722,
  "longitude": 135.726288,
  "review_rating": 3.83,
  "difficulty_rank": "F"
},
{
  "_id": {
    "$oid": "65badb61301b15f1e5c0c94f"
  },
  "": 603,
  "name": "Bukkyo　University",
  "state": "Kyoto",
  "latitude": 35.043476,
  "longitude": 135.737289,
  "review_rating": 3.89,
  "difficulty_rank": "E"
},
{
  "_id": {
    "$oid": "65badb61301b15f1e5c0c950"
  },
  "": 604,
  "name": "Ritsumeikan　University",
  "state": "Kyoto",
  "latitude": 35.009155,
  "longitude": 135.742157,
  "review_rating": 3.9,
  "difficulty_rank": "B"
},
{
  "_id": {
    "$oid": "65badb61301b15f1e5c0c951"
  },
  "": 605,
  "name": "Ryukoku　University",
  "state": "Kyoto",
  "latitude": 34.963924,
  "longitude": 135.766693,
  "review_rating": 3.85,
  "difficulty_rank": "D"
},
{
  "_id": {
    "$oid": "65badb61301b15f1e5c0c952"
  },
  "": 606,
  "name": "Kyoto University of Advanced Science",
  "state": "Kyoto",
  "latitude": 35.010235,
  "longitude": 135.719025,
  "review_rating": 3.51,
  "difficulty_rank": "F"
},
{
  "_id": {
    "$oid": "65badb61301b15f1e5c0c953"
  },
  "": 607,
  "name": "Kyoto　Seika　University",
  "state": "Kyoto",
  "latitude": 35.075008,
  "longitude": 135.769882,
  "review_rating": 3.92,
  "difficulty_rank": "D"
},
{
  "_id": {
    "$oid": "65badb61301b15f1e5c0c954"
  },
  "": 608,
  "name": "Meiji　University　of　Integrative　Medicine",
  "state": "Kyoto",
  "latitude": 35.173378,
  "longitude": 135.487335,
  "review_rating": 3.78,
  "difficulty_rank": "F"
},
{
  "_id": {
    "$oid": "65badb61301b15f1e5c0c955"
  },
  "": 609,
  "name": "Kyoto　University　of　the Arts",
  "state": "Kyoto",
  "latitude": 35.037243,
  "longitude": 135.794586,
  "review_rating": 3.88,
  "difficulty_rank": "E"
},
{
  "_id": {
    "$oid": "65badb61301b15f1e5c0c956"
  },
  "": 610,
  "name": "Kyoto　Bunkyo　University",
  "state": "Kyoto",
  "latitude": 34.914272,
  "longitude": 135.785049,
  "review_rating": 3.76,
  "difficulty_rank": "F"
},
{
  "_id": {
    "$oid": "65badb61301b15f1e5c0c957"
  },
  "": 611,
  "name": "Kyoto　Saga　University　of　Arts",
  "state": "Kyoto",
  "latitude": 35.013035,
  "longitude": 135.688416,
  "review_rating": 3.93,
  "difficulty_rank": "E"
},
{
  "_id": {
    "$oid": "65badb61301b15f1e5c0c958"
  },
  "": 612,
  "name": "The　Kyoto　College　of　Graduate　Studies　For　Informatics",
  "state": "Kyoto",
  "latitude": 35.030453,
  "longitude": 135.779221
},
{
  "_id": {
    "$oid": "65badb61301b15f1e5c0c959"
  },
  "": 613,
  "name": "Kyoto　College　of　Medical　Science",
  "state": "Kyoto",
  "latitude": 35.102692,
  "longitude": 135.479446,
  "review_rating": 3.86,
  "difficulty_rank": "E"
},
{
  "_id": {
    "$oid": "65badb61301b15f1e5c0c95a"
  },
  "": 614,
  "name": "Kyoto　Kacho　University",
  "state": "Kyoto",
  "latitude": 35.007614,
  "longitude": 135.780304,
  "review_rating": 3.82,
  "difficulty_rank": "F"
},
{
  "_id": {
    "$oid": "65badb61301b15f1e5c0c95b"
  },
  "": 615,
  "name": "Kyoto　Arts　And　Crafts　University",
  "state": "Kyoto",
  "latitude": 35.007614,
  "longitude": 135.780304,
  "review_rating": 4.03,
  "difficulty_rank": "E"
},
{
  "_id": {
    "$oid": "65badb61301b15f1e5c0c95c"
  },
  "": 616,
  "name": "Kyoto　College　of　Nursing",
  "state": "Kyoto",
  "latitude": 34.997562,
  "longitude": 135.73465,
  "review_rating": 3.25,
  "difficulty_rank": "E"
},
{
  "_id": {
    "$oid": "65badb61301b15f1e5c0c95d"
  },
  "": 617,
  "name": "Osaka　University　of　Economics",
  "state": "Osaka",
  "latitude": 34.750027,
  "longitude": 135.543991,
  "review_rating": 3.78,
  "difficulty_rank": "E"
},
{
  "_id": {
    "$oid": "65badb61301b15f1e5c0c95e"
  },
  "": 618,
  "name": "Osaka　Institute　of　Technology",
  "state": "Osaka",
  "latitude": 34.730782,
  "longitude": 135.54538,
  "review_rating": 3.81,
  "difficulty_rank": "D"
},
{
  "_id": {
    "$oid": "65badb61301b15f1e5c0c95f"
  },
  "": 619,
  "name": "Osaka　Dental　University",
  "state": "Osaka",
  "latitude": 34.858795,
  "longitude": 135.676361,
  "review_rating": 3.61,
  "difficulty_rank": "D"
},
{
  "_id": {
    "$oid": "65badb61301b15f1e5c0c960"
  },
  "": 620,
  "name": "Soai　University",
  "state": "Osaka",
  "latitude": 34.634575,
  "longitude": 135.424088,
  "review_rating": 3.79,
  "difficulty_rank": "F"
},
{
  "_id": {
    "$oid": "65badb61301b15f1e5c0c961"
  },
  "": 621,
  "name": "Momoyama　Gakuin　University",
  "state": "Osaka",
  "latitude": 34.452583,
  "longitude": 135.454117,
  "review_rating": 3.58,
  "difficulty_rank": "E"
},
{
  "_id": {
    "$oid": "65badb61301b15f1e5c0c962"
  },
  "": 622,
  "name": "Setsunan　University",
  "state": "Osaka",
  "latitude": 34.779728,
  "longitude": 135.613068,
  "review_rating": 3.64,
  "difficulty_rank": "E"
},
{
  "_id": {
    "$oid": "65badb61301b15f1e5c0c963"
  },
  "": 623,
  "name": "Momoyama　Gakuin　University　of　Education",
  "state": "Osaka",
  "latitude": 34.483715,
  "longitude": 135.533585,
  "review_rating": 3.66,
  "difficulty_rank": "E"
},
{
  "_id": {
    "$oid": "65badb61301b15f1e5c0c964"
  },
  "": 624,
  "name": "Osaka Medical and Pharmaceutical University",
  "state": "Osaka",
  "latitude": 34.85186,
  "longitude": 135.624405,
  "review_rating": 4.11,
  "difficulty_rank": "B"
},
{
  "_id": {
    "$oid": "65badb61301b15f1e5c0c965"
  },
  "": 625,
  "name": "Osaka　College　of　Music",
  "state": "Osaka",
  "latitude": 34.753349,
  "longitude": 135.470444,
  "review_rating": 4,
  "difficulty_rank": "F"
},
{
  "_id": {
    "$oid": "65badb61301b15f1e5c0c966"
  },
  "": 626,
  "name": "Osaka　Gakuin　University",
  "state": "Osaka",
  "latitude": 34.773399,
  "longitude": 135.541901,
  "review_rating": 3.58,
  "difficulty_rank": "E"
},
{
  "_id": {
    "$oid": "65badb61301b15f1e5c0c967"
  },
  "": 627,
  "name": "Osaka University of Arts",
  "state": "Osaka",
  "latitude": 34.51239,
  "longitude": 135.630569,
  "review_rating": 3.79,
  "difficulty_rank": "E"
},
{
  "_id": {
    "$oid": "65badb61301b15f1e5c0c968"
  },
  "": 628,
  "name": "Osaka　Sangyo　University",
  "state": "Osaka",
  "latitude": 34.70779,
  "longitude": 135.646149,
  "review_rating": 3.46,
  "difficulty_rank": "F"
},
{
  "_id": {
    "$oid": "65badb61301b15f1e5c0c969"
  },
  "": 629,
  "name": "Osaka　Shoin　Women’s　University",
  "state": "Osaka",
  "latitude": 34.663212,
  "longitude": 135.578369,
  "review_rating": 3.86,
  "difficulty_rank": "F"
},
{
  "_id": {
    "$oid": "65badb61301b15f1e5c0c96a"
  },
  "": 630,
  "name": "Osaka　University　of　Commerce",
  "state": "Osaka",
  "latitude": 34.666237,
  "longitude": 135.583664,
  "review_rating": 3.56,
  "difficulty_rank": "E"
},
{
  "_id": {
    "$oid": "65badb61301b15f1e5c0c96b"
  },
  "": 631,
  "name": "Osaka　University　of　Health　And　Sport　Sciences",
  "state": "Osaka",
  "latitude": 34.380264,
  "longitude": 135.358826,
  "review_rating": 4.13,
  "difficulty_rank": "E"
},
{
  "_id": {
    "$oid": "65badb61301b15f1e5c0c96c"
  },
  "": 632,
  "name": "Osaka　Electro-Communication　University",
  "state": "Osaka",
  "latitude": 34.760239,
  "longitude": 135.627777,
  "review_rating": 3.78,
  "difficulty_rank": "E"
},
{
  "_id": {
    "$oid": "65badb61301b15f1e5c0c96d"
  },
  "": 633,
  "name": "Osaka　Ohtani　University",
  "state": "Osaka",
  "latitude": 34.481937,
  "longitude": 135.58226,
  "review_rating": 3.78,
  "difficulty_rank": "E"
},
{
  "_id": {
    "$oid": "65badb61301b15f1e5c0c96e"
  },
  "": 634,
  "name": "Otemon　Gakuin　University",
  "state": "Osaka",
  "latitude": 34.846218,
  "longitude": 135.558502,
  "review_rating": 3.56,
  "difficulty_rank": "D"
},
{
  "_id": {
    "$oid": "65badb61301b15f1e5c0c96f"
  },
  "": 635,
  "name": "Kansai　University",
  "state": "Osaka",
  "latitude": 34.769669,
  "longitude": 135.510162,
  "review_rating": 3.95,
  "difficulty_rank": "B"
},
{
  "_id": {
    "$oid": "65badb61301b15f1e5c0c970"
  },
  "": 636,
  "name": "Kansai　Medical　University",
  "state": "Osaka",
  "latitude": 34.818779,
  "longitude": 135.645493,
  "review_rating": 4.07,
  "difficulty_rank": "C"
},
{
  "_id": {
    "$oid": "65badb61301b15f1e5c0c971"
  },
  "": 637,
  "name": "Kansai　Gaidai　University",
  "state": "Osaka",
  "latitude": 34.822128,
  "longitude": 135.667068,
  "review_rating": 3.71,
  "difficulty_rank": "C"
},
{
  "_id": {
    "$oid": "65badb61301b15f1e5c0c972"
  },
  "": 638,
  "name": "Kindai　University",
  "state": "Osaka",
  "latitude": 34.65155,
  "longitude": 135.587158,
  "review_rating": 3.86,
  "difficulty_rank": "C"
},
{
  "_id": {
    "$oid": "65badb61301b15f1e5c0c973"
  },
  "": 639,
  "name": "Shitennoji　University",
  "state": "Osaka",
  "latitude": 34.54615,
  "longitude": 135.583755,
  "review_rating": 3.88,
  "difficulty_rank": "E"
},
{
  "_id": {
    "$oid": "65badb61301b15f1e5c0c974"
  },
  "": 640,
  "name": "Tezukayamagakuin　University",
  "state": "Osaka",
  "latitude": 34.489052,
  "longitude": 135.532791,
  "review_rating": 3.85,
  "difficulty_rank": "E"
},
{
  "_id": {
    "$oid": "65badb61301b15f1e5c0c975"
  },
  "": 641,
  "name": "Baika　Women’s　University",
  "state": "Osaka",
  "latitude": 34.841614,
  "longitude": 135.535049,
  "review_rating": 3.83,
  "difficulty_rank": "E"
},
{
  "_id": {
    "$oid": "65badb61301b15f1e5c0c976"
  },
  "": 642,
  "name": "Hannan　University",
  "state": "Osaka",
  "latitude": 34.592194,
  "longitude": 135.534409,
  "review_rating": 3.76,
  "difficulty_rank": "E"
},
{
  "_id": {
    "$oid": "65badb61301b15f1e5c0c977"
  },
  "": 643,
  "name": "Osaka　University　of　Economics　and　Law",
  "state": "Osaka",
  "latitude": 34.641026,
  "longitude": 135.645554,
  "review_rating": 3.53,
  "difficulty_rank": "E"
},
{
  "_id": {
    "$oid": "65badb61301b15f1e5c0c978"
  },
  "": 644,
  "name": "Osaka　International　University",
  "state": "Osaka",
  "latitude": 34.748039,
  "longitude": 135.603439,
  "review_rating": 3.78,
  "difficulty_rank": "E"
},
{
  "_id": {
    "$oid": "65badb61301b15f1e5c0c979"
  },
  "": 645,
  "name": "Kansai　University　of　Welfare　Sciences",
  "state": "Osaka",
  "latitude": 34.559875,
  "longitude": 135.636398,
  "review_rating": 3.79,
  "difficulty_rank": "F"
},
{
  "_id": {
    "$oid": "65badb61301b15f1e5c0c97a"
  },
  "": 646,
  "name": "Taisei　Gakuin　University",
  "state": "Osaka",
  "latitude": 34.526031,
  "longitude": 135.578201,
  "review_rating": 3.32,
  "difficulty_rank": "F"
},
{
  "_id": {
    "$oid": "65badb61301b15f1e5c0c97b"
  },
  "": 647,
  "name": "Tokiwakai Gakuen　University",
  "state": "Osaka",
  "latitude": 34.616505,
  "longitude": 135.561798,
  "review_rating": 3.82,
  "difficulty_rank": "F"
},
{
  "_id": {
    "$oid": "65badb61301b15f1e5c0c97c"
  },
  "": 648,
  "name": "Osaka　University　of　Tourism",
  "state": "Osaka",
  "latitude": 34.392704,
  "longitude": 135.339508,
  "review_rating": 3.39,
  "difficulty_rank": "F"
},
{
  "_id": {
    "$oid": "65badb61301b15f1e5c0c97d"
  },
  "": 649,
  "name": "Osaka　University　of　Human　Sciences",
  "state": "Osaka",
  "latitude": 34.779377,
  "longitude": 135.547882,
  "review_rating": 3.6,
  "difficulty_rank": "F"
},
{
  "_id": {
    "$oid": "65badb61301b15f1e5c0c97e"
  },
  "": 650,
  "name": "Hagoromo　University　of　International　Studies",
  "state": "Osaka",
  "latitude": 34.534309,
  "longitude": 135.447662,
  "review_rating": 3.51,
  "difficulty_rank": "F"
},
{
  "_id": {
    "$oid": "65badb61301b15f1e5c0c97f"
  },
  "": 651,
  "name": "Osaka　Seikei　University",
  "state": "Osaka",
  "latitude": 34.758598,
  "longitude": 135.537384,
  "review_rating": 3.71,
  "difficulty_rank": "E"
},
{
  "_id": {
    "$oid": "65badb61301b15f1e5c0c980"
  },
  "": 652,
  "name": "Kansai　University　of　Health　Sciences",
  "state": "Osaka",
  "latitude": 34.406616,
  "longitude": 135.3703,
  "review_rating": 3.92,
  "difficulty_rank": "E"
},
{
  "_id": {
    "$oid": "65badb61301b15f1e5c0c981"
  },
  "": 653,
  "name": "Senri　Kinran　University",
  "state": "Osaka",
  "latitude": 34.826584,
  "longitude": 135.515549,
  "review_rating": 3.8,
  "difficulty_rank": "F"
},
{
  "_id": {
    "$oid": "65badb61301b15f1e5c0c982"
  },
  "": 654,
  "name": "Higashiosaka　College",
  "state": "Osaka",
  "latitude": 34.674828,
  "longitude": 135.580933,
  "review_rating": 3.83,
  "difficulty_rank": "F"
},
{
  "_id": {
    "$oid": "65badb61301b15f1e5c0c983"
  },
  "": 655,
  "name": "Osaka　Jogakuin　University",
  "state": "Osaka",
  "latitude": 34.676949,
  "longitude": 135.526535,
  "review_rating": 3.91,
  "difficulty_rank": "F"
},
{
  "_id": {
    "$oid": "65badb61301b15f1e5c0c984"
  },
  "": 656,
  "name": "Aino　University",
  "state": "Osaka",
  "latitude": 34.843227,
  "longitude": 135.581833,
  "review_rating": 3.53,
  "difficulty_rank": "E"
},
{
  "_id": {
    "$oid": "65badb61301b15f1e5c0c985"
  },
  "": 657,
  "name": "Osaka　Aoyama　University",
  "state": "Osaka",
  "latitude": 34.83382,
  "longitude": 135.457367,
  "review_rating": 3.73,
  "difficulty_rank": "E"
},
{
  "_id": {
    "$oid": "65badb61301b15f1e5c0c986"
  },
  "": 658,
  "name": "Shijonawate　Gakuen　University",
  "state": "Osaka",
  "latitude": 34.727669,
  "longitude": 135.646805,
  "review_rating": 3.9,
  "difficulty_rank": "F"
},
{
  "_id": {
    "$oid": "65badb61301b15f1e5c0c987"
  },
  "": 659,
  "name": "Osaka　Kawasaki　Rehabilitation　University",
  "state": "Osaka",
  "latitude": 34.404541,
  "longitude": 135.38707,
  "review_rating": 3.8
},
{
  "_id": {
    "$oid": "65badb61301b15f1e5c0c988"
  },
  "": 660,
  "name": "Osaka　University　of　Comprehensive　Children　Education",
  "state": "Osaka",
  "latitude": 34.60725,
  "longitude": 135.538864,
  "review_rating": 4.06,
  "difficulty_rank": "E"
},
{
  "_id": {
    "$oid": "65badb61301b15f1e5c0c989"
  },
  "": 661,
  "name": "Morinomiya　University　of　Medical　Sciences",
  "state": "Osaka",
  "latitude": 34.641914,
  "longitude": 135.413635,
  "review_rating": 3.9,
  "difficulty_rank": "D"
},
{
  "_id": {
    "$oid": "65badb61301b15f1e5c0c98a"
  },
  "": 662,
  "name": "Osaka　Health　Science　University",
  "state": "Osaka",
  "latitude": 34.693417,
  "longitude": 135.519669,
  "review_rating": 4.01,
  "difficulty_rank": "F"
},
{
  "_id": {
    "$oid": "65badb61301b15f1e5c0c98b"
  },
  "": 663,
  "name": "Butsuryo　College　of　Osaka",
  "state": "Osaka",
  "latitude": 34.538174,
  "longitude": 135.462921,
  "review_rating": 3.51,
  "difficulty_rank": "F"
},
{
  "_id": {
    "$oid": "65badb61301b15f1e5c0c98c"
  },
  "": 664,
  "name": "Jikei University of Health Care Sciences",
  "state": "Osaka",
  "latitude": 34.734314,
  "longitude": 135.500031,
  "review_rating": 4,
  "difficulty_rank": "F"
},
{
  "_id": {
    "$oid": "65badb61301b15f1e5c0c98d"
  },
  "": 665,
  "name": "Osaka　Yukioka　College　of　Health　Science",
  "state": "Osaka",
  "latitude": 34.828323,
  "longitude": 135.580566,
  "review_rating": 3.41,
  "difficulty_rank": "F"
},
{
  "_id": {
    "$oid": "65badb61301b15f1e5c0c98e"
  },
  "": 666,
  "name": "Yamato　University",
  "state": "Osaka",
  "latitude": 34.765766,
  "longitude": 135.519043,
  "review_rating": 3.7,
  "difficulty_rank": "C"
},
{
  "_id": {
    "$oid": "65badb61301b15f1e5c0c98f"
  },
  "": 667,
  "name": "Takarazuka　University",
  "state": "Osaka",
  "latitude": 34.707886,
  "longitude": 135.497284,
  "review_rating": 3.55,
  "difficulty_rank": "F"
},
{
  "_id": {
    "$oid": "65badb61301b15f1e5c0c990"
  },
  "": 668,
  "name": "International Professional University of Technology in Osaka",
  "state": "Osaka",
  "latitude": 34.699421,
  "longitude": 135.49324,
  "review_rating": 4
},
{
  "_id": {
    "$oid": "65badb61301b15f1e5c0c991"
  },
  "": 669,
  "name": "Konan　University",
  "state": "Hyogo",
  "latitude": 34.729561,
  "longitude": 135.268463,
  "review_rating": 3.88,
  "difficulty_rank": "D"
},
{
  "_id": {
    "$oid": "65badb61301b15f1e5c0c992"
  },
  "": 670,
  "name": "Konan　Women’s　University",
  "state": "Hyogo",
  "latitude": 34.734211,
  "longitude": 135.288895,
  "review_rating": 3.98,
  "difficulty_rank": "E"
},
{
  "_id": {
    "$oid": "65badb61301b15f1e5c0c993"
  },
  "": 671,
  "name": "Kobe　Kaisei　College",
  "state": "Hyogo",
  "latitude": 34.712616,
  "longitude": 135.21196,
  "review_rating": 3.87,
  "difficulty_rank": "F"
},
{
  "_id": {
    "$oid": "65badb61301b15f1e5c0c994"
  },
  "": 672,
  "name": "Kobe　Gakuin　University",
  "state": "Hyogo",
  "latitude": 34.672279,
  "longitude": 135.203583,
  "review_rating": 3.6,
  "difficulty_rank": "E"
},
{
  "_id": {
    "$oid": "65badb61301b15f1e5c0c995"
  },
  "": 673,
  "name": "Kobe　Women’s　University",
  "state": "Hyogo",
  "latitude": 34.658886,
  "longitude": 135.109131,
  "review_rating": 3.84,
  "difficulty_rank": "E"
},
{
  "_id": {
    "$oid": "65badb61301b15f1e5c0c996"
  },
  "": 674,
  "name": "Kobe　Pharmaceutical　University",
  "state": "Hyogo",
  "latitude": 34.732506,
  "longitude": 135.283752,
  "review_rating": 3.68,
  "difficulty_rank": "D"
},
{
  "_id": {
    "$oid": "65badb61301b15f1e5c0c997"
  },
  "": 675,
  "name": "Kobe　Shoin　Women’s　University",
  "state": "Hyogo",
  "latitude": 34.72765,
  "longitude": 135.229904,
  "review_rating": 3.86,
  "difficulty_rank": "E"
},
{
  "_id": {
    "$oid": "65badb61301b15f1e5c0c998"
  },
  "": 676,
  "name": "Kobe　Shinwa　Women’S　University",
  "state": "Hyogo",
  "latitude": 34.727726,
  "longitude": 135.154785,
  "review_rating": 3.9
},
{
  "_id": {
    "$oid": "65badb61301b15f1e5c0c999"
  },
  "": 677,
  "name": "Kobe　International　University",
  "state": "Hyogo",
  "latitude": 34.681519,
  "longitude": 135.271103,
  "review_rating": 3.66,
  "difficulty_rank": "F"
},
{
  "_id": {
    "$oid": "65badb61301b15f1e5c0c99a"
  },
  "": 678,
  "name": "Hyogo　University",
  "state": "Hyogo",
  "latitude": 34.746761,
  "longitude": 134.881317,
  "review_rating": 3.68,
  "difficulty_rank": "F"
},
{
  "_id": {
    "$oid": "65badb61301b15f1e5c0c99b"
  },
  "": 679,
  "name": "Kobe　Tokiwa　University",
  "state": "Hyogo",
  "latitude": 34.6661,
  "longitude": 135.140472,
  "review_rating": 3.8,
  "difficulty_rank": "E"
},
{
  "_id": {
    "$oid": "65badb61301b15f1e5c0c99c"
  },
  "": 680,
  "name": "Takarazuka　University　of　Medical　and　Health　Care",
  "state": "Hyogo",
  "latitude": 34.835621,
  "longitude": 135.401855,
  "review_rating": 3.7,
  "difficulty_rank": "F"
},
{
  "_id": {
    "$oid": "65badb61301b15f1e5c0c99d"
  },
  "": 681,
  "name": "Ashiya　University",
  "state": "Hyogo",
  "latitude": 34.753239,
  "longitude": 135.30777,
  "review_rating": 3.67,
  "difficulty_rank": "F"
},
{
  "_id": {
    "$oid": "65badb61301b15f1e5c0c99e"
  },
  "": 682,
  "name": "Otemae　University",
  "state": "Hyogo",
  "latitude": 34.737976,
  "longitude": 135.325104,
  "review_rating": 3.63,
  "difficulty_rank": "E"
},
{
  "_id": {
    "$oid": "65badb61301b15f1e5c0c99f"
  },
  "": 683,
  "name": "Kwansei　Gakuin　University",
  "state": "Hyogo",
  "latitude": 34.767162,
  "longitude": 135.34436,
  "review_rating": 4,
  "difficulty_rank": "B"
},
{
  "_id": {
    "$oid": "65badb61301b15f1e5c0c9a0"
  },
  "": 684,
  "name": "Koshien　University",
  "state": "Hyogo",
  "latitude": 34.806511,
  "longitude": 135.33316,
  "review_rating": 3.55,
  "difficulty_rank": "F"
},
{
  "_id": {
    "$oid": "65badb61301b15f1e5c0c9a1"
  },
  "": 685,
  "name": "Kobe　College",
  "state": "Hyogo",
  "latitude": 34.759605,
  "longitude": 135.350464,
  "review_rating": 4.23,
  "difficulty_rank": "E"
},
{
  "_id": {
    "$oid": "65badb61301b15f1e5c0c9a2"
  },
  "": 686,
  "name": "Sonoda　Women’s　University",
  "state": "Hyogo",
  "latitude": 34.749084,
  "longitude": 135.411011,
  "review_rating": 3.59,
  "difficulty_rank": "F"
},
{
  "_id": {
    "$oid": "65badb61301b15f1e5c0c9a3"
  },
  "": 687,
  "name": "Mukogawa　Women’s　University",
  "state": "Hyogo",
  "latitude": 34.717453,
  "longitude": 135.374451,
  "review_rating": 4.01,
  "difficulty_rank": "D"
},
{
  "_id": {
    "$oid": "65badb61301b15f1e5c0c9a4"
  },
  "": 688,
  "name": "Hyogo　Medical　University",
  "state": "Hyogo",
  "latitude": 34.719002,
  "longitude": 135.378647,
  "review_rating": 3.94,
  "difficulty_rank": "D"
},
{
  "_id": {
    "$oid": "65badb61301b15f1e5c0c9a5"
  },
  "": 689,
  "name": "Himeji　Dokkyo　University",
  "state": "Hyogo",
  "latitude": 34.873276,
  "longitude": 134.688828,
  "review_rating": 3.71,
  "difficulty_rank": "F"
},
{
  "_id": {
    "$oid": "65badb61301b15f1e5c0c9a6"
  },
  "": 690,
  "name": "University　of　Marketing　And　Distribution　Sciences",
  "state": "Hyogo",
  "latitude": 34.687099,
  "longitude": 135.057877,
  "review_rating": 3.78,
  "difficulty_rank": "E"
},
{
  "_id": {
    "$oid": "65badb61301b15f1e5c0c9a7"
  },
  "": 691,
  "name": "Kobe　Design　University",
  "state": "Hyogo",
  "latitude": 34.677147,
  "longitude": 135.055939,
  "review_rating": 3.78,
  "difficulty_rank": "F"
},
{
  "_id": {
    "$oid": "65badb61301b15f1e5c0c9a8"
  },
  "": 692,
  "name": "Kansai　University　of　Social　Welfare",
  "state": "Hyogo",
  "latitude": 34.761024,
  "longitude": 134.368454,
  "review_rating": 3.74,
  "difficulty_rank": "E"
},
{
  "_id": {
    "$oid": "65badb61301b15f1e5c0c9a9"
  },
  "": 693,
  "name": "Kansai　University　of　International　Studies",
  "state": "Hyogo",
  "latitude": 34.771805,
  "longitude": 135.044052,
  "review_rating": 3.57,
  "difficulty_rank": "F"
},
{
  "_id": {
    "$oid": "65badb61301b15f1e5c0c9aa"
  },
  "": 694,
  "name": "Kobe　University　of　Welfare",
  "state": "Hyogo",
  "latitude": 34.97525,
  "longitude": 134.726196,
  "review_rating": 3.67,
  "difficulty_rank": "F"
},
{
  "_id": {
    "$oid": "65badb61301b15f1e5c0c9ab"
  },
  "": 695,
  "name": "Kobe　Institute　of　Computing　-　Graduate　School　of　Information　Technology",
  "state": "Hyogo",
  "latitude": 34.698917,
  "longitude": 135.193039,
  "review_rating": 3.63
},
{
  "_id": {
    "$oid": "65badb61301b15f1e5c0c9ac"
  },
  "": 696,
  "name": "Kansai　University　of　Nursing　And　Health　Sciences",
  "state": "Hyogo",
  "latitude": 34.4356,
  "longitude": 134.901291,
  "review_rating": 3.9,
  "difficulty_rank": "E"
},
{
  "_id": {
    "$oid": "65badb61301b15f1e5c0c9ad"
  },
  "": 697,
  "name": "Hyogo　University　of　Health　Sciences",
  "state": "Hyogo",
  "latitude": 34.666256,
  "longitude": 135.203979,
  "review_rating": 3.99
},
{
  "_id": {
    "$oid": "65badb61301b15f1e5c0c9ae"
  },
  "": 698,
  "name": "Himeji　University",
  "state": "Hyogo",
  "latitude": 34.773808,
  "longitude": 134.75943,
  "review_rating": 3.72,
  "difficulty_rank": "F"
},
{
  "_id": {
    "$oid": "65badb61301b15f1e5c0c9af"
  },
  "": 699,
  "name": "Tezukayama　University",
  "state": "Nara",
  "latitude": 34.686455,
  "longitude": 135.722137,
  "review_rating": 3.7,
  "difficulty_rank": "E"
},
{
  "_id": {
    "$oid": "65badb61301b15f1e5c0c9b0"
  },
  "": 700,
  "name": "Tenri　University",
  "state": "Nara",
  "latitude": 34.597195,
  "longitude": 135.845306,
  "review_rating": 4.17,
  "difficulty_rank": "E"
},
{
  "_id": {
    "$oid": "65badb61301b15f1e5c0c9b1"
  },
  "": 701,
  "name": "Nara　University",
  "state": "Nara",
  "latitude": 34.714764,
  "longitude": 135.783218,
  "review_rating": 3.86,
  "difficulty_rank": "F"
},
{
  "_id": {
    "$oid": "65badb61301b15f1e5c0c9b2"
  },
  "": 702,
  "name": "Naragakuen　University",
  "state": "Nara",
  "latitude": 34.721218,
  "longitude": 135.747269,
  "review_rating": 3.76,
  "difficulty_rank": "F"
},
{
  "_id": {
    "$oid": "65badb61301b15f1e5c0c9b3"
  },
  "": 703,
  "name": "Kio　University",
  "state": "Nara",
  "latitude": 34.546612,
  "longitude": 135.723099,
  "review_rating": 4.04,
  "difficulty_rank": "D"
},
{
  "_id": {
    "$oid": "65badb61301b15f1e5c0c9b4"
  },
  "": 704,
  "name": "Tenri　Health　Care　University",
  "state": "Nara",
  "latitude": 34.607342,
  "longitude": 135.83638,
  "review_rating": 3.53
},
{
  "_id": {
    "$oid": "65badb61301b15f1e5c0c9b5"
  },
  "": 705,
  "name": "Koyasan　University",
  "state": "Wakayama",
  "latitude": 34.211441,
  "longitude": 135.585602,
  "review_rating": 4.33,
  "difficulty_rank": "F"
},
{
  "_id": {
    "$oid": "65badb61301b15f1e5c0c9b6"
  },
  "": 706,
  "name": "Wakayama Shin-ai University",
  "state": "Wakayama",
  "latitude": 34.236881,
  "longitude": 135.176102,
  "review_rating": 3.79,
  "difficulty_rank": "F"
},
{
  "_id": {
    "$oid": "65badb61301b15f1e5c0c9b7"
  },
  "": 707,
  "name": "Wakayama　Professional　University of Rehabilitation",
  "state": "Wakayama",
  "latitude": 34.233154,
  "longitude": 135.163116,
  "difficulty_rank": "F"
},
{
  "_id": {
    "$oid": "65badb61301b15f1e5c0c9b8"
  },
  "": 708,
  "name": "Tottori　College　of　Nursing",
  "state": "Tottori",
  "latitude": 35.456047,
  "longitude": 133.859024,
  "review_rating": 4.23,
  "difficulty_rank": "E"
},
{
  "_id": {
    "$oid": "65badb61301b15f1e5c0c9b9"
  },
  "": 709,
  "name": "Kibi　International　University",
  "state": "Okayama",
  "latitude": 34.796394,
  "longitude": 133.620956,
  "review_rating": 3.67,
  "difficulty_rank": "F"
},
{
  "_id": {
    "$oid": "65badb61301b15f1e5c0c9ba"
  },
  "": 710,
  "name": "Okayama　Shoka　University",
  "state": "Okayama",
  "latitude": 34.683128,
  "longitude": 133.90094,
  "review_rating": 3.71,
  "difficulty_rank": "F"
},
{
  "_id": {
    "$oid": "65badb61301b15f1e5c0c9bb"
  },
  "": 711,
  "name": "Okayama　University　of　Science",
  "state": "Okayama",
  "latitude": 34.695194,
  "longitude": 133.924484,
  "review_rating": 3.69,
  "difficulty_rank": "F"
},
{
  "_id": {
    "$oid": "65badb61301b15f1e5c0c9bc"
  },
  "": 712,
  "name": "Kurashiki　Sakuyo　University",
  "state": "Okayama",
  "latitude": 34.574867,
  "longitude": 133.677567,
  "review_rating": 3.84,
  "difficulty_rank": "F"
},
{
  "_id": {
    "$oid": "65badb61301b15f1e5c0c9bd"
  },
  "": 713,
  "name": "Notre　Dame　Seishin　University",
  "state": "Okayama",
  "latitude": 34.672947,
  "longitude": 133.916412,
  "review_rating": 4.08,
  "difficulty_rank": "C"
},
{
  "_id": {
    "$oid": "65badb61301b15f1e5c0c9be"
  },
  "": 714,
  "name": "Kawasaki　Medical　School",
  "state": "Okayama",
  "latitude": 34.631077,
  "longitude": 133.809937,
  "review_rating": 3.57,
  "difficulty_rank": "A"
},
{
  "_id": {
    "$oid": "65badb61301b15f1e5c0c9bf"
  },
  "": 715,
  "name": "Shujitsu　University",
  "state": "Okayama",
  "latitude": 34.676815,
  "longitude": 133.93541,
  "review_rating": 3.96,
  "difficulty_rank": "E"
},
{
  "_id": {
    "$oid": "65badb61301b15f1e5c0c9c0"
  },
  "": 716,
  "name": "Kawasaki　University　of　Medical　Welfare",
  "state": "Okayama",
  "latitude": 34.63422,
  "longitude": 133.810959,
  "review_rating": 3.79,
  "difficulty_rank": "F"
},
{
  "_id": {
    "$oid": "65badb61301b15f1e5c0c9c1"
  },
  "": 717,
  "name": "Sanyo　Gakuen　University",
  "state": "Okayama",
  "latitude": 34.642506,
  "longitude": 133.94426,
  "review_rating": 3.57,
  "difficulty_rank": "F"
},
{
  "_id": {
    "$oid": "65badb61301b15f1e5c0c9c2"
  },
  "": 718,
  "name": "Kurashiki　University　of　Science　And　The　Arts",
  "state": "Okayama",
  "latitude": 34.555973,
  "longitude": 133.712479,
  "review_rating": 3.63,
  "difficulty_rank": "F"
},
{
  "_id": {
    "$oid": "65badb61301b15f1e5c0c9c3"
  },
  "": 719,
  "name": "Okayama　Gakuin　University",
  "state": "Okayama",
  "latitude": 34.572922,
  "longitude": 133.799286,
  "review_rating": 3.43,
  "difficulty_rank": "F"
},
{
  "_id": {
    "$oid": "65badb61301b15f1e5c0c9c4"
  },
  "": 720,
  "name": "Chugokugakuen　University",
  "state": "Okayama",
  "latitude": 34.650665,
  "longitude": 133.849426,
  "review_rating": 3.76,
  "difficulty_rank": "F"
},
{
  "_id": {
    "$oid": "65badb61301b15f1e5c0c9c5"
  },
  "": 721,
  "name": "International　Pacific　University",
  "state": "Okayama",
  "latitude": 34.729137,
  "longitude": 134.012451,
  "review_rating": 3.75,
  "difficulty_rank": "F"
},
{
  "_id": {
    "$oid": "65badb61301b15f1e5c0c9c6"
  },
  "": 722,
  "name": "Okayama Healthcare Professional University",
  "state": "Okayama",
  "latitude": 34.656384,
  "longitude": 133.916397,
  "review_rating": 2,
  "difficulty_rank": "F"
},
{
  "_id": {
    "$oid": "65badb61301b15f1e5c0c9c7"
  },
  "": 723,
  "name": "Mimasaka　University",
  "state": "Okayama",
  "latitude": 35.076176,
  "longitude": 134.00824,
  "review_rating": 4.09,
  "difficulty_rank": "E"
},
{
  "_id": {
    "$oid": "65badb61301b15f1e5c0c9c8"
  },
  "": 724,
  "name": "Elisabeth　University　of　Music",
  "state": "Hiroshima",
  "latitude": 34.395115,
  "longitude": 132.467819,
  "review_rating": 3.54,
  "difficulty_rank": "F"
},
{
  "_id": {
    "$oid": "65badb61301b15f1e5c0c9c9"
  },
  "": 725,
  "name": "Hiroshima　University　of　Economics",
  "state": "Hiroshima",
  "latitude": 34.447708,
  "longitude": 132.455368,
  "review_rating": 3.74,
  "difficulty_rank": "F"
},
{
  "_id": {
    "$oid": "65badb61301b15f1e5c0c9ca"
  },
  "": 726,
  "name": "Hiroshima　Institute　of　Technology",
  "state": "Hiroshima",
  "latitude": 34.370216,
  "longitude": 132.342941,
  "review_rating": 3.69,
  "difficulty_rank": "E"
},
{
  "_id": {
    "$oid": "65badb61301b15f1e5c0c9cb"
  },
  "": 727,
  "name": "Hiroshima　Shudo　University",
  "state": "Hiroshima",
  "latitude": 34.435001,
  "longitude": 132.403549,
  "review_rating": 3.89,
  "difficulty_rank": "E"
},
{
  "_id": {
    "$oid": "65badb61301b15f1e5c0c9cc"
  },
  "": 728,
  "name": "Hiroshima　Jogakuin　University",
  "state": "Hiroshima",
  "latitude": 34.413734,
  "longitude": 132.484268,
  "review_rating": 3.9,
  "difficulty_rank": "F"
},
{
  "_id": {
    "$oid": "65badb61301b15f1e5c0c9cd"
  },
  "": 729,
  "name": "Hiroshima　Kokusai　Gakuin　University",
  "state": "Hiroshima",
  "latitude": 34.410328,
  "longitude": 132.579514,
  "review_rating": 3.58
},
{
  "_id": {
    "$oid": "65badb61301b15f1e5c0c9ce"
  },
  "": 730,
  "name": "Hiroshima　Bunkyo　University",
  "state": "Hiroshima",
  "latitude": 34.505554,
  "longitude": 132.51973,
  "review_rating": 4.08,
  "difficulty_rank": "E"
},
{
  "_id": {
    "$oid": "65badb61301b15f1e5c0c9cf"
  },
  "": 731,
  "name": "Yasuda　Women’s　University",
  "state": "Hiroshima",
  "latitude": 34.480515,
  "longitude": 132.452377,
  "review_rating": 4.28,
  "difficulty_rank": "E"
},
{
  "_id": {
    "$oid": "65badb61301b15f1e5c0c9d0"
  },
  "": 732,
  "name": "Fukuyama　University",
  "state": "Hiroshima",
  "latitude": 34.463791,
  "longitude": 133.244263,
  "review_rating": 3.76,
  "difficulty_rank": "F"
},
{
  "_id": {
    "$oid": "65badb61301b15f1e5c0c9d1"
  },
  "": 733,
  "name": "Hijiyama　University",
  "state": "Hiroshima",
  "latitude": 34.427959,
  "longitude": 132.474304,
  "review_rating": 3.73,
  "difficulty_rank": "F"
},
{
  "_id": {
    "$oid": "65badb61301b15f1e5c0c9d2"
  },
  "": 734,
  "name": "Fukuyama　Heisei　University",
  "state": "Hiroshima",
  "latitude": 34.54808,
  "longitude": 133.346588,
  "review_rating": 3.7,
  "difficulty_rank": "F"
},
{
  "_id": {
    "$oid": "65badb61301b15f1e5c0c9d3"
  },
  "": 735,
  "name": "Hiroshima　Bunka　Gakuen　University",
  "state": "Hiroshima",
  "latitude": 34.288696,
  "longitude": 132.637268,
  "review_rating": 3.52,
  "difficulty_rank": "F"
},
{
  "_id": {
    "$oid": "65badb61301b15f1e5c0c9d4"
  },
  "": 736,
  "name": "Hiroshima　InternationalUniversity",
  "state": "Hiroshima",
  "latitude": 34.313538,
  "longitude": 132.687531,
  "review_rating": 3.61,
  "difficulty_rank": "E"
},
{
  "_id": {
    "$oid": "65badb61301b15f1e5c0c9d5"
  },
  "": 737,
  "name": "Japanese　Red　Cross　Hiroshima　College　of　Nursing",
  "state": "Hiroshima",
  "latitude": 34.335869,
  "longitude": 132.309082,
  "review_rating": 3.9,
  "difficulty_rank": "E"
},
{
  "_id": {
    "$oid": "65badb61301b15f1e5c0c9d6"
  },
  "": 738,
  "name": "Hiroshima　Cosmopolitan　University",
  "state": "Hiroshima",
  "latitude": 34.359978,
  "longitude": 132.457932,
  "review_rating": 3.41,
  "difficulty_rank": "F"
},
{
  "_id": {
    "$oid": "65badb61301b15f1e5c0c9d7"
  },
  "": 739,
  "name": "Baiko　Gakuin　University",
  "state": "Yamaguchi",
  "latitude": 33.967678,
  "longitude": 130.933243,
  "review_rating": 3.34,
  "difficulty_rank": "F"
},
{
  "_id": {
    "$oid": "65badb61301b15f1e5c0c9d8"
  },
  "": 740,
  "name": "The　University　of　East　Asia",
  "state": "Yamaguchi",
  "latitude": 34.000916,
  "longitude": 130.948242,
  "review_rating": 3.86,
  "difficulty_rank": "F"
},
{
  "_id": {
    "$oid": "65badb61301b15f1e5c0c9d9"
  },
  "": 741,
  "name": "Shiseikan　University",
  "state": "Yamaguchi",
  "latitude": 34.426121,
  "longitude": 131.413086,
  "review_rating": 3.47,
  "difficulty_rank": "F"
},
{
  "_id": {
    "$oid": "65badb61301b15f1e5c0c9da"
  },
  "": 742,
  "name": "Ube　Frontier　University",
  "state": "Yamaguchi",
  "latitude": 33.980694,
  "longitude": 131.234238,
  "review_rating": 3.84,
  "difficulty_rank": "F"
},
{
  "_id": {
    "$oid": "65badb61301b15f1e5c0c9db"
  },
  "": 743,
  "name": "Yamaguchi　Gakugei　University",
  "state": "Yamaguchi",
  "latitude": 34.120808,
  "longitude": 131.401886,
  "review_rating": 4.01,
  "difficulty_rank": "F"
},
{
  "_id": {
    "$oid": "65badb61301b15f1e5c0c9dc"
  },
  "": 744,
  "name": "Shikoku　University",
  "state": "Tokushima",
  "latitude": 34.102814,
  "longitude": 134.553314,
  "review_rating": 3.78,
  "difficulty_rank": "F"
},
{
  "_id": {
    "$oid": "65badb61301b15f1e5c0c9dd"
  },
  "": 745,
  "name": "Tokushima　Bunri　University",
  "state": "Tokushima",
  "latitude": 34.072392,
  "longitude": 134.553452,
  "review_rating": 3.74,
  "difficulty_rank": "F"
},
{
  "_id": {
    "$oid": "65badb61301b15f1e5c0c9de"
  },
  "": 746,
  "name": "Shikoku　Gakuin　University",
  "state": "Kagawa",
  "latitude": 34.225399,
  "longitude": 133.785568,
  "review_rating": 3.74,
  "difficulty_rank": "F"
},
{
  "_id": {
    "$oid": "65badb61301b15f1e5c0c9df"
  },
  "": 747,
  "name": "Takamatsu　University",
  "state": "Kagawa",
  "latitude": 34.32811,
  "longitude": 134.087769,
  "review_rating": 3.84,
  "difficulty_rank": "F"
},
{
  "_id": {
    "$oid": "65badb61301b15f1e5c0c9e0"
  },
  "": 748,
  "name": "Matsuyama　University",
  "state": "Ehime",
  "latitude": 33.851158,
  "longitude": 132.767639,
  "review_rating": 3.7,
  "difficulty_rank": "F"
},
{
  "_id": {
    "$oid": "65badb61301b15f1e5c0c9e1"
  },
  "": 749,
  "name": "St.Catherine　University",
  "state": "Ehime",
  "latitude": 33.978985,
  "longitude": 132.779617,
  "review_rating": 3.97,
  "difficulty_rank": "F"
},
{
  "_id": {
    "$oid": "65badb61301b15f1e5c0c9e2"
  },
  "": 750,
  "name": "Matsuyama　Shinonome　College",
  "state": "Ehime",
  "latitude": 33.831757,
  "longitude": 132.796432,
  "review_rating": 3.97,
  "difficulty_rank": "F"
},
{
  "_id": {
    "$oid": "65badb61301b15f1e5c0c9e3"
  },
  "": 751,
  "name": "Kochi Professional University of Rehabilitation",
  "state": "Kochi",
  "latitude": 33.500893,
  "longitude": 133.410797,
  "review_rating": 4,
  "difficulty_rank": "F"
},
{
  "_id": {
    "$oid": "65badb61301b15f1e5c0c9e4"
  },
  "": 752,
  "name": "Kochi　Gakuen University",
  "state": "Kochi",
  "latitude": 33.560822,
  "longitude": 133.506653,
  "review_rating": 4,
  "difficulty_rank": "F"
},
{
  "_id": {
    "$oid": "65badb61301b15f1e5c0c9e5"
  },
  "": 753,
  "name": "Kyushu　Kyoritsu　University",
  "state": "Fukuoka",
  "latitude": 33.870468,
  "longitude": 130.703064,
  "review_rating": 3.7,
  "difficulty_rank": "F"
},
{
  "_id": {
    "$oid": "65badb61301b15f1e5c0c9e6"
  },
  "": 754,
  "name": "Kyushu　Women’s　University",
  "state": "Fukuoka",
  "latitude": 33.870468,
  "longitude": 130.703064,
  "review_rating": 3.64,
  "difficulty_rank": "F"
},
{
  "_id": {
    "$oid": "65badb61301b15f1e5c0c9e7"
  },
  "": 755,
  "name": "Kyushu　International　University",
  "state": "Fukuoka",
  "latitude": 33.86253,
  "longitude": 130.79277,
  "review_rating": 3.56,
  "difficulty_rank": "F"
},
{
  "_id": {
    "$oid": "65badb61301b15f1e5c0c9e8"
  },
  "": 756,
  "name": "Fukuoka　Dental　College",
  "state": "Fukuoka",
  "latitude": 33.546623,
  "longitude": 130.331177,
  "review_rating": 3.44,
  "difficulty_rank": "F"
},
{
  "_id": {
    "$oid": "65badb61301b15f1e5c0c9e9"
  },
  "": 757,
  "name": "Kyushu　Sangyo　University",
  "state": "Fukuoka",
  "latitude": 33.670216,
  "longitude": 130.444656,
  "review_rating": 3.86,
  "difficulty_rank": "E"
},
{
  "_id": {
    "$oid": "65badb61301b15f1e5c0c9ea"
  },
  "": 758,
  "name": "Kurume University",
  "state": "Fukuoka",
  "latitude": 33.328121,
  "longitude": 130.511475,
  "review_rating": 3.83,
  "difficulty_rank": "E"
},
{
  "_id": {
    "$oid": "65badb61301b15f1e5c0c9eb"
  },
  "": 759,
  "name": "Seinan　Gakuin　University",
  "state": "Fukuoka",
  "latitude": 33.584869,
  "longitude": 130.356842,
  "review_rating": 4.02,
  "difficulty_rank": "C"
},
{
  "_id": {
    "$oid": "65badb61301b15f1e5c0c9ec"
  },
  "": 760,
  "name": "Daiichi　University　of　Pharmacy",
  "state": "Fukuoka",
  "latitude": 33.565372,
  "longitude": 130.417648,
  "review_rating": 3.39,
  "difficulty_rank": "F"
},
{
  "_id": {
    "$oid": "65badb61301b15f1e5c0c9ed"
  },
  "": 761,
  "name": "Nakamura　Gakuen　University",
  "state": "Fukuoka",
  "latitude": 33.573196,
  "longitude": 130.367905,
  "review_rating": 4.04,
  "difficulty_rank": "E"
},
{
  "_id": {
    "$oid": "65badb61301b15f1e5c0c9ee"
  },
  "": 762,
  "name": "Nishinippon　Institute　of　Technology",
  "state": "Fukuoka",
  "latitude": 33.753147,
  "longitude": 130.973511,
  "review_rating": 3.87,
  "difficulty_rank": "F"
},
{
  "_id": {
    "$oid": "65badb61301b15f1e5c0c9ef"
  },
  "": 763,
  "name": "Fukuoka　University",
  "state": "Fukuoka",
  "latitude": 33.546928,
  "longitude": 130.363129,
  "review_rating": 3.98,
  "difficulty_rank": "D"
},
{
  "_id": {
    "$oid": "65badb61301b15f1e5c0c9f0"
  },
  "": 764,
  "name": "Fukuoka　Institute　of　Technology",
  "state": "Fukuoka",
  "latitude": 33.696144,
  "longitude": 130.441742,
  "review_rating": 3.87,
  "difficulty_rank": "E"
},
{
  "_id": {
    "$oid": "65badb61301b15f1e5c0c9f1"
  },
  "": 765,
  "name": "Japan　University　of　Economics",
  "state": "Fukuoka",
  "latitude": 33.506367,
  "longitude": 130.527756,
  "review_rating": 3.7,
  "difficulty_rank": "F"
},
{
  "_id": {
    "$oid": "65badb61301b15f1e5c0c9f2"
  },
  "": 766,
  "name": "Kurume　Institute　of　Technology",
  "state": "Fukuoka",
  "latitude": 33.270023,
  "longitude": 130.526123,
  "review_rating": 3.68,
  "difficulty_rank": "F"
},
{
  "_id": {
    "$oid": "65badb61301b15f1e5c0c9f3"
  },
  "": 767,
  "name": "University　of　Occupational　and　Environmental　Health,　Japan",
  "state": "Fukuoka",
  "latitude": 33.876781,
  "longitude": 130.709549,
  "review_rating": 3.76,
  "difficulty_rank": "C"
},
{
  "_id": {
    "$oid": "65badb61301b15f1e5c0c9f4"
  },
  "": 768,
  "name": "Chikushi　Jogakuen　University",
  "state": "Fukuoka",
  "latitude": 33.512836,
  "longitude": 130.537613,
  "review_rating": 3.97,
  "difficulty_rank": "F"
},
{
  "_id": {
    "$oid": "65badb61301b15f1e5c0c9f5"
  },
  "": 769,
  "name": "Fukuoka　Jo　Gakuin　University",
  "state": "Fukuoka",
  "latitude": 33.53281,
  "longitude": 130.441666,
  "review_rating": 3.92,
  "difficulty_rank": "F"
},
{
  "_id": {
    "$oid": "65badb61301b15f1e5c0c9f6"
  },
  "": 770,
  "name": "Seinan　Jo　Gakuin　University",
  "state": "Fukuoka",
  "latitude": 33.88451,
  "longitude": 130.849899,
  "review_rating": 3.78,
  "difficulty_rank": "F"
},
{
  "_id": {
    "$oid": "65badb61301b15f1e5c0c9f7"
  },
  "": 771,
  "name": "Kyushu　Institute　of　Information　Sciences　University",
  "state": "Fukuoka",
  "latitude": 33.525135,
  "longitude": 130.53717,
  "review_rating": 3.71,
  "difficulty_rank": "F"
},
{
  "_id": {
    "$oid": "65badb61301b15f1e5c0c9f8"
  },
  "": 772,
  "name": "Kyushu　Nutrition　Welfare　University",
  "state": "Fukuoka",
  "latitude": 33.877014,
  "longitude": 130.858078,
  "review_rating": 3.9,
  "difficulty_rank": "F"
},
{
  "_id": {
    "$oid": "65badb61301b15f1e5c0c9f9"
  },
  "": 773,
  "name": "Japanese　Red　Cross　Kyushu　International　College　of　Nursing",
  "state": "Fukuoka",
  "latitude": 33.796188,
  "longitude": 130.609161,
  "review_rating": 3.88,
  "difficulty_rank": "F"
},
{
  "_id": {
    "$oid": "65badb61301b15f1e5c0c9fa"
  },
  "": 774,
  "name": "St.Mary’s　College",
  "state": "Fukuoka",
  "latitude": 33.304573,
  "longitude": 130.509384,
  "review_rating": 3.74,
  "difficulty_rank": "E"
},
{
  "_id": {
    "$oid": "65badb61301b15f1e5c0c9fb"
  },
  "": 775,
  "name": "Cyber University",
  "state": "Fukuoka",
  "latitude": 33.662762,
  "longitude": 130.423126,
  "review_rating": 3.83
},
{
  "_id": {
    "$oid": "65badb61301b15f1e5c0c9fc"
  },
  "": 776,
  "name": "Fukuoka　Jo　Gakuin　Nursing　University",
  "state": "Fukuoka",
  "latitude": 33.740604,
  "longitude": 130.473541,
  "review_rating": 4.52,
  "difficulty_rank": "E"
},
{
  "_id": {
    "$oid": "65badb61301b15f1e5c0c9fd"
  },
  "": 777,
  "name": "College　of　Healthcare　Management",
  "state": "Fukuoka",
  "latitude": 33.146324,
  "longitude": 130.459808,
  "review_rating": 3.24
},
{
  "_id": {
    "$oid": "65badb61301b15f1e5c0c9fe"
  },
  "": 778,
  "name": "Junshin　Gakuen　University",
  "state": "Fukuoka",
  "latitude": 33.558674,
  "longitude": 130.420029,
  "review_rating": 3.45,
  "difficulty_rank": "E"
},
{
  "_id": {
    "$oid": "65badb61301b15f1e5c0c9ff"
  },
  "": 779,
  "name": "Fukuoka　Nursing　College",
  "state": "Fukuoka",
  "latitude": 33.546623,
  "longitude": 130.331177,
  "review_rating": 3,
  "difficulty_rank": "F"
},
{
  "_id": {
    "$oid": "65badb61301b15f1e5c0ca00"
  },
  "": 780,
  "name": "Fukuoka International University of Health and Welfare",
  "state": "Fukuoka",
  "latitude": 33.591415,
  "longitude": 130.349396,
  "review_rating": 3.74,
  "difficulty_rank": "E"
},
{
  "_id": {
    "$oid": "65badb61301b15f1e5c0ca01"
  },
  "": 781,
  "name": "Nishikyushu　University",
  "state": "Saga",
  "latitude": 33.331242,
  "longitude": 130.344986,
  "review_rating": 3.83,
  "difficulty_rank": "F"
},
{
  "_id": {
    "$oid": "65badb61301b15f1e5c0ca02"
  },
  "": 782,
  "name": "Nagasaki　Institute　of　Applied　Science",
  "state": "Nagasaki",
  "latitude": 32.750111,
  "longitude": 129.942505,
  "review_rating": 3.65,
  "difficulty_rank": "F"
},
{
  "_id": {
    "$oid": "65badb61301b15f1e5c0ca03"
  },
  "": 783,
  "name": "Kwassui　Women’s　University",
  "state": "Nagasaki",
  "latitude": 32.738106,
  "longitude": 129.873413,
  "review_rating": 3.76,
  "difficulty_rank": "F"
},
{
  "_id": {
    "$oid": "65badb61301b15f1e5c0ca04"
  },
  "": 784,
  "name": "Nagasaki　Junshin　Catholic　University",
  "state": "Nagasaki",
  "latitude": 32.802841,
  "longitude": 129.907333,
  "review_rating": 3.92,
  "difficulty_rank": "F"
},
{
  "_id": {
    "$oid": "65badb61301b15f1e5c0ca05"
  },
  "": 785,
  "name": "Nagasaki　International　University",
  "state": "Nagasaki",
  "latitude": 33.101685,
  "longitude": 129.789978,
  "review_rating": 3.95,
  "difficulty_rank": "F"
},
{
  "_id": {
    "$oid": "65badb61301b15f1e5c0ca06"
  },
  "": 786,
  "name": "Nagasaki　University　of　Foreign　Studies",
  "state": "Nagasaki",
  "latitude": 32.814011,
  "longitude": 129.841446,
  "review_rating": 3.76,
  "difficulty_rank": "F"
},
{
  "_id": {
    "$oid": "65badb61301b15f1e5c0ca07"
  },
  "": 787,
  "name": "Nagasaki Wesleyan University",
  "state": "Nagasaki",
  "latitude": 32.858086,
  "longitude": 130.030273,
  "review_rating": 3.71,
  "difficulty_rank": "F"
},
{
  "_id": {
    "$oid": "65badb61301b15f1e5c0ca08"
  },
  "": 788,
  "name": "Sojo　University",
  "state": "Kumamoto",
  "latitude": 32.831253,
  "longitude": 130.695465,
  "review_rating": 3.85,
  "difficulty_rank": "E"
},
{
  "_id": {
    "$oid": "65badb61301b15f1e5c0ca09"
  },
  "": 789,
  "name": "Kumamoto　Gakuen　University",
  "state": "Kumamoto",
  "latitude": 32.804508,
  "longitude": 130.728745,
  "review_rating": 3.8,
  "difficulty_rank": "E"
},
{
  "_id": {
    "$oid": "65badb61301b15f1e5c0ca0a"
  },
  "": 790,
  "name": "Shokei　University",
  "state": "Kumamoto",
  "latitude": 32.797447,
  "longitude": 130.716278,
  "review_rating": 3.51,
  "difficulty_rank": "F"
},
{
  "_id": {
    "$oid": "65badb61301b15f1e5c0ca0b"
  },
  "": 791,
  "name": "Kyushu　Lutheran　College",
  "state": "Kumamoto",
  "latitude": 32.820332,
  "longitude": 130.722031,
  "review_rating": 4.28,
  "difficulty_rank": "E"
},
{
  "_id": {
    "$oid": "65badb61301b15f1e5c0ca0c"
  },
  "": 792,
  "name": "Kyushu　University　of　Nursing　And　Social　Welfare",
  "state": "Kumamoto",
  "latitude": 32.946815,
  "longitude": 130.553604,
  "review_rating": 3.72,
  "difficulty_rank": "F"
},
{
  "_id": {
    "$oid": "65badb61301b15f1e5c0ca0d"
  },
  "": 793,
  "name": "Heisei　College　of　Music",
  "state": "Kumamoto",
  "latitude": 32.712303,
  "longitude": 130.791824,
  "review_rating": 3.72
},
{
  "_id": {
    "$oid": "65badb61301b15f1e5c0ca0e"
  },
  "": 794,
  "name": "Kumamoto　Health　Science　University",
  "state": "Kumamoto",
  "latitude": 32.852104,
  "longitude": 130.68782,
  "review_rating": 4.11,
  "difficulty_rank": "E"
},
{
  "_id": {
    "$oid": "65badb61301b15f1e5c0ca0f"
  },
  "": 795,
  "name": "Nippon　Bunri　University",
  "state": "Oita",
  "latitude": 33.231152,
  "longitude": 131.725113,
  "review_rating": 3.63,
  "difficulty_rank": "F"
},
{
  "_id": {
    "$oid": "65badb61301b15f1e5c0ca10"
  },
  "": 796,
  "name": "Beppu　University",
  "state": "Oita",
  "latitude": 33.312283,
  "longitude": 131.490509,
  "review_rating": 3.87,
  "difficulty_rank": "F"
},
{
  "_id": {
    "$oid": "65badb61301b15f1e5c0ca11"
  },
  "": 797,
  "name": "Ritsumeikan　Asia　Pacific　University",
  "state": "Oita",
  "latitude": 33.284721,
  "longitude": 131.491104,
  "review_rating": 3.94,
  "difficulty_rank": "C"
},
{
  "_id": {
    "$oid": "65badb61301b15f1e5c0ca12"
  },
  "": 798,
  "name": "Minami　Kyushu　University",
  "state": "Miyazaki",
  "latitude": 31.93807,
  "longitude": 131.414932,
  "review_rating": 4.11
},
{
  "_id": {
    "$oid": "65badb61301b15f1e5c0ca13"
  },
  "": 799,
  "name": "Miyazaki　Sangyo-Keiei　University",
  "state": "Miyazaki",
  "latitude": 31.882841,
  "longitude": 131.404449,
  "review_rating": 3.78,
  "difficulty_rank": "F"
},
{
  "_id": {
    "$oid": "65badb61301b15f1e5c0ca14"
  },
  "": 800,
  "name": "Miyazaki　International　College",
  "state": "Miyazaki",
  "latitude": 31.87104,
  "longitude": 131.387329,
  "review_rating": 3.68,
  "difficulty_rank": "F"
},
{
  "_id": {
    "$oid": "65badb61301b15f1e5c0ca15"
  },
  "": 801,
  "name": "Kyushu　University　of　Health　And　Welfare",
  "state": "Miyazaki",
  "latitude": 32.56876,
  "longitude": 131.613464,
  "review_rating": 3.64
},
{
  "_id": {
    "$oid": "65badb61301b15f1e5c0ca16"
  },
  "": 802,
  "name": "The　International　University　of　Kagoshima",
  "state": "Kagoshima",
  "latitude": 31.493916,
  "longitude": 130.496445,
  "review_rating": 3.89,
  "difficulty_rank": "F"
},
{
  "_id": {
    "$oid": "65badb61301b15f1e5c0ca17"
  },
  "": 803,
  "name": "Daiichi　Institute　of　Technology",
  "state": "Kagoshima",
  "latitude": 31.745907,
  "longitude": 130.768463,
  "review_rating": 4.02,
  "difficulty_rank": "F"
},
{
  "_id": {
    "$oid": "65badb61301b15f1e5c0ca18"
  },
  "": 804,
  "name": "Shigakukan　University",
  "state": "Kagoshima",
  "latitude": 31.559242,
  "longitude": 130.542252,
  "review_rating": 3.84,
  "difficulty_rank": "F"
},
{
  "_id": {
    "$oid": "65badb61301b15f1e5c0ca19"
  },
  "": 805,
  "name": "Kagoshima　Immaculate　Heart　University",
  "state": "Kagoshima",
  "latitude": 31.826616,
  "longitude": 130.327606,
  "review_rating": 4.04,
  "difficulty_rank": "F"
},
{
  "_id": {
    "$oid": "65badb61301b15f1e5c0ca1a"
  },
  "": 806,
  "name": "Okinawa　Institute　of　Science　and　Technology　Graduate　University",
  "state": "Okinawa",
  "latitude": 26.464243,
  "longitude": 127.830719,
  "review_rating": 3.64
},
{
  "_id": {
    "$oid": "65badb61301b15f1e5c0ca1b"
  },
  "": 807,
  "name": "Okinawa　International　University",
  "state": "Okinawa",
  "latitude": 26.263245,
  "longitude": 127.755028,
  "review_rating": 3.95,
  "difficulty_rank": "E"
},
{
  "_id": {
    "$oid": "65badb61301b15f1e5c0ca1c"
  },
  "": 808,
  "name": "Okinawa　University",
  "state": "Okinawa",
  "latitude": 26.200539,
  "longitude": 127.699211,
  "review_rating": 3.88,
  "difficulty_rank": "F"
},
{
  "_id": {
    "$oid": "65badb61301b15f1e5c0ca1d"
  },
  "": 809,
  "name": "Okinawa　Christian　University",
  "state": "Okinawa",
  "latitude": 26.23896,
  "longitude": 127.754646,
  "review_rating": 4.23,
  "difficulty_rank": "F"
},
{
  "_id": {
    "$oid": "65badb61301b15f1e5c0ca1e"
  },
  "": 810,
  "name": "R Professional University of Rehabilitation",
  "state": "Ibaraki",
  "latitude": 36.084904,
  "longitude": 140.212311,
  "review_rating": 2,
  "difficulty_rank": "F"
},
{
  "_id": {
    "$oid": "65badb61301b15f1e5c0ca1f"
  },
  "": 811,
  "name": "Osaka Shin-Ai  Gakuin University",
  "state": "Osaka",
  "latitude": 34.711761,
  "longitude": 135.559464,
  "difficulty_rank": "F"
},
{
  "_id": {
    "$oid": "65badb61301b15f1e5c0ca20"
  },
  "": 812,
  "name": "Reiwa Health Sciences University",
  "state": "Fukuoka",
  "latitude": 33.690834,
  "longitude": 130.432571,
  "review_rating": 3.5,
  "difficulty_rank": "F"
}]